{"type": "FeatureCollection", "features": [{"type": "Feature", "geometry": {"type": "Point", "coordinates": [-72.501513, 41.823175]}, "properties": {"name": "CAM 1 Vernon I-84 WB Exit 64 - Rt. 30 & 83 (Hartford Tpke.)", "kind": "live", "directions": [{"snapshot": "https://ctroads.org/map/Cctv/308", "video": null, "label": "Traffic closest to the camera is traveling WEST"}], "roadway": "I-84", "county": ""}}, {"type": "Feature", "geometry": {"type": "Point", "coordinates": [-72.516602, 41.812615]}, "properties": {"name": "CAM 3 Manchester I-84 EB Exit 63 - Rt. 30 (Tolland Tpke.)", "kind": "live", "directions": [{"snapshot": "https://ctroads.org/map/Cctv/309", "video": null, "label": "Traffic closest to the camera is traveling EAST"}], "roadway": "I-84", "county": ""}}, {"type": "Feature", "geometry": {"type": "Point", "coordinates": [-72.535104, 41.805873]}, "properties": {"name": "CAM 5 Manchester I-84 MEDIAN Between Exit 63 & 62 - Slater St.", "kind": "live", "directions": [{"snapshot": "https://ctroads.org/map/Cctv/310", "video": null, "label": ""}], "roadway": "I-84", "county": ""}}, {"type": "Feature", "geometry": {"type": "Point", "coordinates": [-72.552004, 41.80251]}, "properties": {"name": "CAM 7 Manchester I-84 WB Exit 62 & 60 - Buckland St.", "kind": "live", "directions": [{"snapshot": "https://ctroads.org/map/Cctv/311", "video": null, "label": "Traffic closest to the camera is traveling WEST"}], "roadway": "I-84", "county": ""}}, {"type": "Feature", "geometry": {"type": "Point", "coordinates": [-72.565236, 41.788324]}, "properties": {"name": "CAM 9 Manchester I-84 WB Exit 59 - I-291 Ramp to I-84 East on ramp", "kind": "live", "directions": [{"snapshot": "https://ctroads.org/map/Cctv/312", "video": null, "label": "Traffic closest to the camera is traveling WEST"}], "roadway": "I-84", "county": ""}}, {"type": "Feature", "geometry": {"type": "Point", "coordinates": [-72.576855, 41.7745]}, "properties": {"name": "CAM 11 Manchester I-84 EB Exit 60 - Rt. 6 & 44 (Middle Tpke. W.)", "kind": "live", "directions": [{"snapshot": "https://ctroads.org/map/Cctv/313", "video": null, "label": "Traffic closest to the camera is traveling EAST"}], "roadway": "I-84", "county": ""}}, {"type": "Feature", "geometry": {"type": "Point", "coordinates": [-72.602722, 41.771624]}, "properties": {"name": "CAM 13 East Hartford I-84 WB E/O Exit 58 - Forbes St.", "kind": "live", "directions": [{"snapshot": "https://ctroads.org/map/Cctv/314", "video": null, "label": "Traffic closest to the camera is traveling WEST"}], "roadway": "I-84", "county": ""}}, {"type": "Feature", "geometry": {"type": "Point", "coordinates": [-72.618569, 41.767167]}, "properties": {"name": "CAM 15 East Hartford I-84 EB W/O Exit 59 - Simmons Rd.", "kind": "live", "directions": [{"snapshot": "https://ctroads.org/map/Cctv/315", "video": null, "label": "Traffic closest to the camera is traveling EAST"}], "roadway": "I-84", "county": ""}}, {"type": "Feature", "geometry": {"type": "Point", "coordinates": [-72.634273, 41.763084]}, "properties": {"name": "CAM 17 East Hartford I-84 EB W/O Exit 58 - Rt. 15", "kind": "live", "directions": [{"snapshot": "https://ctroads.org/map/Cctv/316", "video": null, "label": "Traffic closest to the camera is traveling EAST"}], "roadway": "I-84", "county": ""}}, {"type": "Feature", "geometry": {"type": "Point", "coordinates": [-72.645481, 41.764182]}, "properties": {"name": "CAM 19 East Hartford I-84 EB W/O Exit 57 - Rt. 5 (Main St.)", "kind": "live", "directions": [{"snapshot": "https://ctroads.org/map/Cctv/317", "video": null, "label": "Traffic closest to the camera is traveling EAST"}], "roadway": "I-84", "county": ""}}, {"type": "Feature", "geometry": {"type": "Point", "coordinates": [-72.651995, 41.765207]}, "properties": {"name": "CAM 21 East Hartford I-84 EB Exit 56 - Governor St.", "kind": "live", "directions": [{"snapshot": "https://ctroads.org/map/Cctv/318", "video": null, "label": "Traffic closest to the camera is traveling EAST"}], "roadway": "I-84", "county": ""}}, {"type": "Feature", "geometry": {"type": "Point", "coordinates": [-72.662902, 41.769691]}, "properties": {"name": "CAM 23 East Hartford I-84 WB E/O Exit 51 - Rt. 44 WB on ramp (Bulkeley Br.)", "kind": "live", "directions": [{"snapshot": "https://ctroads.org/map/Cctv/319", "video": null, "label": "Traffic closest to the camera is traveling WEST"}], "roadway": "I-84", "county": ""}}, {"type": "Feature", "geometry": {"type": "Point", "coordinates": [-72.67261, 41.769559]}, "properties": {"name": "CAM 25 Hartford I-84 EB Exit 51 - Rt. 44 (Main St.)", "kind": "live", "directions": [{"snapshot": "https://ctroads.org/map/Cctv/320", "video": null, "label": "Traffic closest to the camera is traveling EAST"}], "roadway": "I-84", "county": ""}}, {"type": "Feature", "geometry": {"type": "Point", "coordinates": [-72.675619, 41.769682]}, "properties": {"name": "CAM 27 Hartford I-84 EB WO Exit 51 - Trumbull St.", "kind": "live", "directions": [{"snapshot": "https://ctroads.org/map/Cctv/321", "video": null, "label": "Traffic closest to the camera is traveling EAST"}], "roadway": "I-84", "county": ""}}, {"type": "Feature", "geometry": {"type": "Point", "coordinates": [-72.68392, 41.767298]}, "properties": {"name": "CAM 29 Hartford I-84 EB W/O Exit 49 - Asylum St.", "kind": "live", "directions": [{"snapshot": "https://ctroads.org/map/Cctv/322", "video": null, "label": "Traffic closest to the camera is traveling EAST"}], "roadway": "I-84", "county": ""}}, {"type": "Feature", "geometry": {"type": "Point", "coordinates": [-72.701652, 41.752789]}, "properties": {"name": "CAM 31 Hartford I-84 MEDIAN Exits 46 & 45 - Hamilton St.", "kind": "live", "directions": [{"snapshot": "https://ctroads.org/map/Cctv/323", "video": null, "label": ""}], "roadway": "I-84", "county": ""}}, {"type": "Feature", "geometry": {"type": "Point", "coordinates": [-72.717088, 41.750209]}, "properties": {"name": "CAM 33 West Hartford I-84 WB Exit 44 - Prospect Ave.", "kind": "live", "directions": [{"snapshot": "https://ctroads.org/map/Cctv/324", "video": null, "label": "Traffic closest to the camera is traveling WEST"}], "roadway": "I-84", "county": ""}}, {"type": "Feature", "geometry": {"type": "Point", "coordinates": [-72.735795, 41.746501]}, "properties": {"name": "CAM 35 West Hartford I-84 WB E/O Exit 42 - Trout Brook Dr.", "kind": "live", "directions": [{"snapshot": "https://ctroads.org/map/Cctv/325", "video": null, "label": "Traffic closest to the camera is traveling WEST"}], "roadway": "I-84", "county": ""}}, {"type": "Feature", "geometry": {"type": "Point", "coordinates": [-72.752591, 41.733064]}, "properties": {"name": "CAM 37 West Hartford I-84 WB E/O Exit 40 - Berkshire Rd.", "kind": "live", "directions": [{"snapshot": "https://ctroads.org/map/Cctv/326", "video": null, "label": "Traffic closest to the camera is traveling WEST"}], "roadway": "I-84", "county": ""}}, {"type": "Feature", "geometry": {"type": "Point", "coordinates": [-72.771279, 41.726372]}, "properties": {"name": "CAM 39 Farmington I-84 EB Rt. 9 NB Exit 32 - Ramp to I-84 WB", "kind": "live", "directions": [{"snapshot": "https://ctroads.org/map/Cctv/327", "video": null, "label": "Traffic closest to the camera is traveling EAST"}], "roadway": "I-84", "county": ""}}, {"type": "Feature", "geometry": {"type": "Point", "coordinates": [-72.790248, 41.722852]}, "properties": {"name": "CAM 41 Farmington I-84 MEDIAN W/O Exit 39A - South Rd.", "kind": "live", "directions": [{"snapshot": "https://ctroads.org/map/Cctv/328", "video": null, "label": ""}], "roadway": "I-84", "county": ""}}, {"type": "Feature", "geometry": {"type": "Point", "coordinates": [-72.798742, 41.71429]}, "properties": {"name": "CAM 43 Farmington I-84 WB E/O Exit 37 - E/O Fienemann Rd.", "kind": "live", "directions": [{"snapshot": "https://ctroads.org/map/Cctv/329", "video": null, "label": "Traffic closest to the camera is traveling WEST"}], "roadway": "I-84", "county": ""}}, {"type": "Feature", "geometry": {"type": "Point", "coordinates": [-72.80745, 41.699198]}, "properties": {"name": "CAM 45 Farmington I-84 WB W/O Exit 37 - W/O Fieneman Rd.", "kind": "live", "directions": [{"snapshot": "https://ctroads.org/map/Cctv/330", "video": null, "label": "Traffic closest to the camera is traveling WEST"}], "roadway": "I-84", "county": ""}}, {"type": "Feature", "geometry": {"type": "Point", "coordinates": [-72.369553, 41.860137]}, "properties": {"name": "CAM 47 Tolland I-84 WB Exit 68 - Cider Mill Rd.", "kind": "live", "directions": [{"snapshot": "https://ctroads.org/map/Cctv/331", "video": null, "label": "Traffic closest to the camera is traveling WEST"}], "roadway": "I-84", "county": ""}}, {"type": "Feature", "geometry": {"type": "Point", "coordinates": [-72.493951, 41.825038]}, "properties": {"name": "CAM 49 Vernon I-84 WB E/O Exit 64 - Rt. 30 & 83 (Hartford Tpke.)", "kind": "live", "directions": [{"snapshot": "https://ctroads.org/map/Cctv/332", "video": null, "label": "Traffic closest to the camera is traveling WEST"}], "roadway": "I-84", "county": ""}}, {"type": "Feature", "geometry": {"type": "Point", "coordinates": [-72.817607, 41.683105]}, "properties": {"name": "CAM 51 New Britain I-84 WB E/O Exit 36 - Long Swamp Rd.", "kind": "live", "directions": [{"snapshot": "https://ctroads.org/map/Cctv/333", "video": null, "label": "Traffic closest to the camera is traveling WEST"}], "roadway": "I-84", "county": ""}}, {"type": "Feature", "geometry": {"type": "Point", "coordinates": [-72.821915, 41.67144]}, "properties": {"name": "CAM 53 New Britain I-84 WB Exit 35 - North Mountain Rd.", "kind": "live", "directions": [{"snapshot": "https://ctroads.org/map/Cctv/334", "video": null, "label": "Traffic closest to the camera is traveling WEST"}], "roadway": "I-84", "county": ""}}, {"type": "Feature", "geometry": {"type": "Point", "coordinates": [-72.839858, 41.670613]}, "properties": {"name": "CAM 55 Plainville I-84 WB Exit 33 - W/O Crooked St.", "kind": "live", "directions": [{"snapshot": "https://ctroads.org/map/Cctv/335", "video": null, "label": "Traffic closest to the camera is traveling WEST"}], "roadway": "I-84", "county": ""}}, {"type": "Feature", "geometry": {"type": "Point", "coordinates": [-72.844708, 41.668371]}, "properties": {"name": "CAM 57 Plainville I-84 EB Exit 34 - Woodford Ave.", "kind": "live", "directions": [{"snapshot": "https://ctroads.org/map/Cctv/336", "video": null, "label": "Traffic closest to the camera is traveling EAST"}], "roadway": "I-84", "county": ""}}, {"type": "Feature", "geometry": {"type": "Point", "coordinates": [-72.868739, 41.635638]}, "properties": {"name": "CAM 59 Southington I-84 EB E/O Exit 32 - Rt. 10 (Queen St.)", "kind": "live", "directions": [{"snapshot": "https://ctroads.org/map/Cctv/337", "video": null, "label": "Traffic closest to the camera is traveling EAST"}], "roadway": "I-84", "county": ""}}, {"type": "Feature", "geometry": {"type": "Point", "coordinates": [-72.891554, 41.619721]}, "properties": {"name": "CAM 61 Southington I-84 EB W/O Exit 31 - E/O Curtis St.", "kind": "live", "directions": [{"snapshot": "https://ctroads.org/map/Cctv/338", "video": null, "label": "Traffic closest to the camera is traveling EAST"}], "roadway": "I-84", "county": ""}}, {"type": "Feature", "geometry": {"type": "Point", "coordinates": [-72.899368, 41.612335]}, "properties": {"name": "CAM 63 Southington I-84 WB Exit 31 - Rt. 229 (West St.)", "kind": "live", "directions": [{"snapshot": "https://ctroads.org/map/Cctv/339", "video": null, "label": "Traffic closest to the camera is traveling WEST"}], "roadway": "I-84", "county": ""}}, {"type": "Feature", "geometry": {"type": "Point", "coordinates": [-72.639963, 41.89839]}, "properties": {"name": "CAM 65 Windsor I-91 SB Exit 40 - Rt. 20", "kind": "live", "directions": [{"snapshot": "https://ctroads.org/map/Cctv/340", "video": null, "label": "Traffic closest to the camera is traveling SOUTH"}], "roadway": "I-91", "county": ""}}, {"type": "Feature", "geometry": {"type": "Point", "coordinates": [-72.657365, 41.885478]}, "properties": {"name": "CAM 67 Windsor I-91 SB N/O Exit 38 A/B - Rt. 75 (Poquonock Ave.)", "kind": "live", "directions": [{"snapshot": "https://ctroads.org/map/Cctv/341", "video": null, "label": "Traffic closest to the camera is traveling SOUTH"}], "roadway": "I-91", "county": ""}}, {"type": "Feature", "geometry": {"type": "Point", "coordinates": [-72.663217, 41.873556]}, "properties": {"name": "CAM 69 Windsor I-91 SB S/O Exit 38 A/B - Rt. 75 (Poquonock Ave.)", "kind": "live", "directions": [{"snapshot": "https://ctroads.org/map/Cctv/342", "video": null, "label": "Traffic closest to the camera is traveling SOUTH"}], "roadway": "I-91", "county": ""}}, {"type": "Feature", "geometry": {"type": "Point", "coordinates": [-72.662487, 41.860719]}, "properties": {"name": "CAM 71 Windsor I-91 NB S/O Exit 38 - Pigeon Hill Rd.", "kind": "live", "directions": [{"snapshot": "https://ctroads.org/map/Cctv/343", "video": null, "label": "Traffic closest to the camera is traveling NORTH"}], "roadway": "I-91", "county": ""}}, {"type": "Feature", "geometry": {"type": "Point", "coordinates": [-72.665558, 41.838423]}, "properties": {"name": "CAM 73 Windsor I-91 SB Exit 36 - Rt. 178 (Park St.)", "kind": "live", "directions": [{"snapshot": "https://ctroads.org/map/Cctv/344", "video": null, "label": "Traffic closest to the camera is traveling SOUTH"}], "roadway": "I-91", "county": ""}}, {"type": "Feature", "geometry": {"type": "Point", "coordinates": [-72.664211, 41.819472]}, "properties": {"name": "CAM 75 Windsor I-91 NB Rt. 218 (Putnam Hwy.) - I-91 NB Exit 35B", "kind": "live", "directions": [{"snapshot": "https://ctroads.org/map/Cctv/345", "video": null, "label": "Traffic closest to the camera is traveling NORTH"}], "roadway": "I-91", "county": ""}}, {"type": "Feature", "geometry": {"type": "Point", "coordinates": [-72.664153, 41.811704]}, "properties": {"name": "CAM 77 Windsor I-91 SB N/O Exit 34 - Bina Ave.", "kind": "live", "directions": [{"snapshot": "https://ctroads.org/map/Cctv/346", "video": null, "label": "Traffic closest to the camera is traveling SOUTH"}], "roadway": "I-91", "county": ""}}, {"type": "Feature", "geometry": {"type": "Point", "coordinates": [-72.654027, 41.797657]}, "properties": {"name": "CAM 79 Hartford I-91 NB S/O Exit 34 - S/O Rt. 159 (Windsor Ave.)", "kind": "live", "directions": [{"snapshot": "https://ctroads.org/map/Cctv/347", "video": null, "label": "Traffic closest to the camera is traveling NORTH"}], "roadway": "I-91", "county": ""}}, {"type": "Feature", "geometry": {"type": "Point", "coordinates": [-72.667942, 41.77665]}, "properties": {"name": "CAM 81 Hartford I-91 SB N/O Exit 32 A/B - N/O I-84", "kind": "live", "directions": [{"snapshot": "https://ctroads.org/map/Cctv/348", "video": null, "label": "Traffic closest to the camera is traveling SOUTH"}], "roadway": "I-91", "county": ""}}, {"type": "Feature", "geometry": {"type": "Point", "coordinates": [-72.669276, 41.769812]}, "properties": {"name": "CAM 83 Hartford I-84 WB Exit 50 - Market St.", "kind": "live", "directions": [{"snapshot": "https://ctroads.org/map/Cctv/349", "video": null, "label": "Traffic closest to the camera is traveling WEST"}], "roadway": "I-84", "county": ""}}, {"type": "Feature", "geometry": {"type": "Point", "coordinates": [-72.666909, 41.763703]}, "properties": {"name": "CAM 85 Hartford I-91 NB Exit 32A - S/O Rt. 2", "kind": "live", "directions": [{"snapshot": "https://ctroads.org/map/Cctv/350", "video": null, "label": "Traffic closest to the camera is traveling NORTH"}], "roadway": "I-91", "county": ""}}, {"type": "Feature", "geometry": {"type": "Point", "coordinates": [-72.658651, 41.753726]}, "properties": {"name": "CAM 87 Hartford I-91 NB S/O Exit 29A - S/O Whitehead Hwy.", "kind": "live", "directions": [{"snapshot": "https://ctroads.org/map/Cctv/351", "video": null, "label": "Traffic closest to the camera is traveling NORTH"}], "roadway": "I-91", "county": ""}}, {"type": "Feature", "geometry": {"type": "Point", "coordinates": [-72.663319, 41.742231]}, "properties": {"name": "CAM 89 Hartford I-91 SB Exit 27 - Airport Rd.", "kind": "live", "directions": [{"snapshot": "https://ctroads.org/map/Cctv/352", "video": null, "label": "Traffic closest to the camera is traveling SOUTH"}], "roadway": "I-91", "county": ""}}, {"type": "Feature", "geometry": {"type": "Point", "coordinates": [-72.651985, 41.724163]}, "properties": {"name": "CAM 91 Wethersfield I-91 NB S/O Exit 27 - S/O Rt. 5 & 15", "kind": "live", "directions": [{"snapshot": "https://ctroads.org/map/Cctv/353", "video": null, "label": "Traffic closest to the camera is traveling NORTH"}], "roadway": "I-91", "county": ""}}, {"type": "Feature", "geometry": {"type": "Point", "coordinates": [-72.645865, 41.708976]}, "properties": {"name": "CAM 93 Wethersfield I-91 SB Exit 25S - Rt. 3 (Maple St.)", "kind": "live", "directions": [{"snapshot": "https://ctroads.org/map/Cctv/354", "video": null, "label": "Traffic closest to the camera is traveling SOUTH"}], "roadway": "I-91", "county": ""}}, {"type": "Feature", "geometry": {"type": "Point", "coordinates": [-72.643655, 41.698838]}, "properties": {"name": "CAM 95 Wethersfield I-91 NB S/O Exit 25/26 - Elm St.", "kind": "live", "directions": [{"snapshot": "https://ctroads.org/map/Cctv/355", "video": null, "label": "Traffic closest to the camera is traveling NORTH"}], "roadway": "I-91", "county": ""}}, {"type": "Feature", "geometry": {"type": "Point", "coordinates": [-72.653346, 41.681]}, "properties": {"name": "CAM 97 Rocky Hill I-91 MEDIAN Exit 24 - Rt 99 (Silas Deane Hwy.)", "kind": "live", "directions": [{"snapshot": "https://ctroads.org/map/Cctv/356", "video": null, "label": ""}], "roadway": "I-91", "county": ""}}, {"type": "Feature", "geometry": {"type": "Point", "coordinates": [-72.663006, 41.671811]}, "properties": {"name": "CAM 99 Rocky Hill I-91 SB N/O Exit 23 - N/O Gilbert Ave.", "kind": "live", "directions": [{"snapshot": "https://ctroads.org/map/Cctv/357", "video": null, "label": "Traffic closest to the camera is traveling SOUTH"}], "roadway": "I-91", "county": ""}}, {"type": "Feature", "geometry": {"type": "Point", "coordinates": [-72.669195, 41.660692]}, "properties": {"name": "CAM 101 Rocky Hill I-91 NB S/O Exit 24 - Rt. 160 (Elm St.)", "kind": "live", "directions": [{"snapshot": "https://ctroads.org/map/Cctv/358", "video": null, "label": "Traffic closest to the camera is traveling NORTH"}], "roadway": "I-91", "county": ""}}, {"type": "Feature", "geometry": {"type": "Point", "coordinates": [-72.671792, 41.650898]}, "properties": {"name": "CAM 103 Rocky Hill I-91 NB Exit 23 - West St.", "kind": "live", "directions": [{"snapshot": "https://ctroads.org/map/Cctv/359", "video": null, "label": "Traffic closest to the camera is traveling NORTH"}], "roadway": "I-91", "county": ""}}, {"type": "Feature", "geometry": {"type": "Point", "coordinates": [-72.677507, 41.643536]}, "properties": {"name": "CAM 105 Rocky Hill I-91 SB N/O Exit 22S - Rt. 3 (Cromwell Ave.)", "kind": "live", "directions": [{"snapshot": "https://ctroads.org/map/Cctv/360", "video": null, "label": "Traffic closest to the camera is traveling SOUTH"}], "roadway": "I-91", "county": ""}}, {"type": "Feature", "geometry": {"type": "Point", "coordinates": [-72.684432, 41.63604]}, "properties": {"name": "CAM 107 Rocky Hill I-91 SB N/O Exit 22S - N/O Rt. 9", "kind": "live", "directions": [{"snapshot": "https://ctroads.org/map/Cctv/361", "video": null, "label": "Traffic closest to the camera is traveling SOUTH"}], "roadway": "I-91", "county": ""}}, {"type": "Feature", "geometry": {"type": "Point", "coordinates": [-72.692674, 41.626961]}, "properties": {"name": "CAM 109 Cromwell I-91 SB Exit 22N - Rt. 9", "kind": "live", "directions": [{"snapshot": "https://ctroads.org/map/Cctv/362", "video": null, "label": "Traffic closest to the camera is traveling SOUTH"}], "roadway": "I-91", "county": ""}}, {"type": "Feature", "geometry": {"type": "Point", "coordinates": [-72.697139, 41.616107]}, "properties": {"name": "CAM 111 Cromwell I-91 SB N/O Exit 21 - Evergreen Rd.", "kind": "live", "directions": [{"snapshot": "https://ctroads.org/map/Cctv/363", "video": null, "label": "Traffic closest to the camera is traveling SOUTH"}], "roadway": "I-91", "county": ""}}, {"type": "Feature", "geometry": {"type": "Point", "coordinates": [-72.662405, 41.766114]}, "properties": {"name": "CAM 113 East Hartford RT 2 WB W/O Exit 3 - E. River Dr.", "kind": "live", "directions": [{"snapshot": "https://ctroads.org/map/Cctv/364", "video": null, "label": "Traffic closest to the camera is traveling WEST"}], "roadway": "RT 2", "county": ""}}, {"type": "Feature", "geometry": {"type": "Point", "coordinates": [-72.654257, 41.762453]}, "properties": {"name": "CAM 115 East Hartford RT 2 EB W/O Exit 5 - Pitkin St.", "kind": "live", "directions": [{"snapshot": "https://ctroads.org/map/Cctv/365", "video": null, "label": "Traffic closest to the camera is traveling EAST"}], "roadway": "RT 2", "county": ""}}, {"type": "Feature", "geometry": {"type": "Point", "coordinates": [-72.627806, 41.736625]}, "properties": {"name": "CAM 121 East Hartford RT 2 EB E/O Exit 2B - Sutton Ave", "kind": "live", "directions": [{"snapshot": "https://ctroads.org/map/Cctv/366", "video": null, "label": "Traffic closest to the camera is traveling SOUTH"}], "roadway": "RT 2", "county": ""}}, {"type": "Feature", "geometry": {"type": "Point", "coordinates": [-72.641341, 41.745966]}, "properties": {"name": "CAM 118 East Hartford RT 2 EB W/O Exit 5A - Ensign St.", "kind": "live", "directions": [{"snapshot": "https://ctroads.org/map/Cctv/367", "video": null, "label": "Traffic closest to the camera is traveling EAST"}], "roadway": "RT-2", "county": ""}}, {"type": "Feature", "geometry": {"type": "Point", "coordinates": [-72.629431, 41.739458]}, "properties": {"name": "CAM 120 East Hartford RT 2 WB Exit 5A - Main St.", "kind": "live", "directions": [{"snapshot": "https://ctroads.org/map/Cctv/368", "video": null, "label": "Traffic closest to the camera is traveling WEST"}], "roadway": "RT-2", "county": ""}}, {"type": "Feature", "geometry": {"type": "Point", "coordinates": [-72.617339, 41.730212]}, "properties": {"name": "CAM 123 East Hartford RT 2 WB Exit 5D - Rt. 3", "kind": "live", "directions": [{"snapshot": "https://ctroads.org/map/Cctv/369", "video": null, "label": "Traffic closest to the camera is traveling WEST"}], "roadway": "RT 2", "county": ""}}, {"type": "Feature", "geometry": {"type": "Point", "coordinates": [-72.89863, 41.585713]}, "properties": {"name": "CAM 126 Southington I-84 EB Exit 30 - Marion Ave.", "kind": "live", "directions": [{"snapshot": "https://ctroads.org/map/Cctv/370", "video": null, "label": "Traffic closest to the camera is traveling EAST"}], "roadway": "I-84", "county": ""}}, {"type": "Feature", "geometry": {"type": "Point", "coordinates": [-72.904192, 41.57506]}, "properties": {"name": "CAM 128 Southington I-84 EB W/O Exit 30 - East of Burrit St", "kind": "live", "directions": [{"snapshot": "https://ctroads.org/map/Cctv/371", "video": null, "label": "Traffic closest to the camera is traveling EAST"}], "roadway": "I-84", "county": ""}}, {"type": "Feature", "geometry": {"type": "Point", "coordinates": [-72.915213, 41.561364]}, "properties": {"name": "CAM 130 Southington I-84 EB Exit 28 - Meriden-Waterbury Turnpike", "kind": "live", "directions": [{"snapshot": "https://ctroads.org/map/Cctv/372", "video": null, "label": "Traffic closest to the camera is traveling EAST"}], "roadway": "I-84", "county": ""}}, {"type": "Feature", "geometry": {"type": "Point", "coordinates": [-72.944909, 41.542422]}, "properties": {"name": "CAM 132 Cheshire I-84 EB E/O Exit 26 - East of Waterbury Rd.", "kind": "live", "directions": [{"snapshot": "https://ctroads.org/map/Cctv/373", "video": null, "label": "Traffic closest to the camera is traveling EAST"}], "roadway": "I-84", "county": ""}}, {"type": "Feature", "geometry": {"type": "Point", "coordinates": [-72.975051, 41.540271]}, "properties": {"name": "CAM 134 Waterbury I-84 EB Exit 25A - East of Austin Rd", "kind": "live", "directions": [{"snapshot": "https://ctroads.org/map/Cctv/374", "video": null, "label": "Traffic closest to the camera is traveling EAST"}], "roadway": "I-84", "county": ""}}, {"type": "Feature", "geometry": {"type": "Point", "coordinates": [-73.030685, 41.551438]}, "properties": {"name": "CAM 139 Waterbury I-84 WB E/O Exit 21 - E/O Baldwin St.", "kind": "live", "directions": [{"snapshot": "https://ctroads.org/map/Cctv/375", "video": null, "label": "Traffic closest to the camera is traveling WEST"}], "roadway": "I-84", "county": ""}}, {"type": "Feature", "geometry": {"type": "Point", "coordinates": [-73.044782, 41.551967]}, "properties": {"name": "CAM 141 Waterbury I-84 WB E/O Exit 19 - Meadow St.", "kind": "live", "directions": [{"snapshot": "https://ctroads.org/map/Cctv/376", "video": null, "label": "Traffic closest to the camera is traveling WEST"}], "roadway": "I-84", "county": ""}}, {"type": "Feature", "geometry": {"type": "Point", "coordinates": [-73.068308, 41.548091]}, "properties": {"name": "CAM 143 Waterbury I-84 WB E/O Exit 17 - Chase Pkwy.", "kind": "live", "directions": [{"snapshot": "https://ctroads.org/map/Cctv/377", "video": null, "label": "Traffic closest to the camera is traveling WEST"}], "roadway": "I-84", "county": ""}}, {"type": "Feature", "geometry": {"type": "Point", "coordinates": [-73.233931, 41.458232]}, "properties": {"name": "CAM 145 Southbury I-84 EB Exit 14 - Rt. 172 (Lakeside Rd.)", "kind": "live", "directions": [{"snapshot": "https://ctroads.org/map/Cctv/378", "video": null, "label": "Traffic closest to the camera is traveling EAST"}], "roadway": "I-84", "county": ""}}, {"type": "Feature", "geometry": {"type": "Point", "coordinates": [-73.425384, 41.418583]}, "properties": {"name": "CAM 147 Danbury I-84 WB Exit 7 - Rockwell Rd.", "kind": "live", "directions": [{"snapshot": "https://ctroads.org/map/Cctv/379", "video": null, "label": "Traffic closest to the camera is traveling WEST"}], "roadway": "I-84", "county": ""}}, {"type": "Feature", "geometry": {"type": "Point", "coordinates": [-73.463067, 41.403038]}, "properties": {"name": "CAM 149 Danbury I-84 EB Exit 5 - Starr Ave.", "kind": "live", "directions": [{"snapshot": "https://ctroads.org/map/Cctv/380", "video": null, "label": "Traffic closest to the camera is traveling EAST"}], "roadway": "I-84", "county": ""}}, {"type": "Feature", "geometry": {"type": "Point", "coordinates": [-73.52351, 41.391201]}, "properties": {"name": "CAM 151 Danbury I-84 EB Exit 2 - Milestone Rd", "kind": "live", "directions": [{"snapshot": "https://ctroads.org/map/Cctv/381", "video": null, "label": "Traffic closest to the camera is traveling EAST"}], "roadway": "I-84", "county": ""}}, {"type": "Feature", "geometry": {"type": "Point", "coordinates": [-72.648108, 41.584772]}, "properties": {"name": "CAM 157 Cromwell RT 9 MEDIAN Between Exits 27 & 24 - Rt. 99 (Main St.)", "kind": "live", "directions": [{"snapshot": "https://ctroads.org/map/Cctv/382", "video": null, "label": "N/A"}], "roadway": "RT 9", "county": ""}}, {"type": "Feature", "geometry": {"type": "Point", "coordinates": [-72.651533, 41.568877]}, "properties": {"name": "CAM 159 Middletown RT 66 WB @ Rt 9 SB - Arrigoni Bridge", "kind": "live", "directions": [{"snapshot": "https://ctroads.org/map/Cctv/383", "video": null, "label": "Traffic closest to the camera is traveling WEST"}], "roadway": "RT 66", "county": ""}}, {"type": "Feature", "geometry": {"type": "Point", "coordinates": [-72.63084, 41.546947]}, "properties": {"name": "CAM 161 Middletown RT 9 SB Bow Lane - S/O Bow Lane Overpass", "kind": "live", "directions": [{"snapshot": "https://ctroads.org/map/Cctv/384", "video": null, "label": "Traffic closest to the camera is traveling SOUTH"}], "roadway": "RT 9", "county": ""}}, {"type": "Feature", "geometry": {"type": "Point", "coordinates": [-73.053634, 41.583931]}, "properties": {"name": "CAM 163 Waterbury RT 8 NB Exit 36 - Huntingon Ave.", "kind": "live", "directions": [{"snapshot": "https://ctroads.org/map/Cctv/385", "video": null, "label": "Traffic closest to the camera is traveling NORTH"}], "roadway": "RT 8", "county": ""}}, {"type": "Feature", "geometry": {"type": "Point", "coordinates": [-73.055833, 41.556493]}, "properties": {"name": "CAM 165 Waterbury RT 8 SB Exit 32 & 33 - W. Main St.", "kind": "live", "directions": [{"snapshot": "https://ctroads.org/map/Cctv/386", "video": null, "label": "Traffic closest to the camera is traveling SOUTH"}], "roadway": "RT 8", "county": ""}}, {"type": "Feature", "geometry": {"type": "Point", "coordinates": [-73.050146, 41.550349]}, "properties": {"name": "CAM 167 Waterbury RT 8 SB N/O Exit 30 - S/O I-84 vic. Sunnyside Ave.", "kind": "live", "directions": [{"snapshot": "https://ctroads.org/map/Cctv/387", "video": null, "label": "Traffic closest to the camera is traveling SOUTH"}], "roadway": "RT 8", "county": ""}}, {"type": "Feature", "geometry": {"type": "Point", "coordinates": [-73.044949, 41.543504]}, "properties": {"name": "CAM 169 Waterbury RT 8 SB Exit 30 - Washington Ave. & Charles St.", "kind": "live", "directions": [{"snapshot": "https://ctroads.org/map/Cctv/388", "video": null, "label": "Traffic closest to the camera is traveling SOUTH"}], "roadway": "RT 8", "county": ""}}, {"type": "Feature", "geometry": {"type": "Point", "coordinates": [-73.044337, 41.523385]}, "properties": {"name": "CAM 171 Waterbury RT 8 NB S/O Exit 30 - S/O Nicholas Dr.", "kind": "live", "directions": [{"snapshot": "https://ctroads.org/map/Cctv/389", "video": null, "label": "Traffic closest to the camera is traveling NORTH"}], "roadway": "RT 8", "county": ""}}, {"type": "Feature", "geometry": {"type": "Point", "coordinates": [-73.045448, 41.505969]}, "properties": {"name": "CAM 173 Naugatuck RT 8 NB S/O Exit 29 - N. Main St. & Hopkins St.", "kind": "live", "directions": [{"snapshot": "https://ctroads.org/map/Cctv/390", "video": null, "label": "Traffic closest to the camera is traveling NORTH"}], "roadway": "RT 8", "county": ""}}, {"type": "Feature", "geometry": {"type": "Point", "coordinates": [-72.858026, 41.676344]}, "properties": {"name": "CAM 176 Plainville RT 72 MEDIAN W/O Exit 4 - Woodford Ave", "kind": "live", "directions": [{"snapshot": "https://ctroads.org/map/Cctv/391", "video": null, "label": "N/A"}], "roadway": "RT-72", "county": ""}}, {"type": "Feature", "geometry": {"type": "Point", "coordinates": [-72.508042, 41.819398]}, "properties": {"name": "CAM 2 Manchester I-84 WB E/O Exit 63 - Rt. 30 (Deming St.)", "kind": "live", "directions": [{"snapshot": "https://ctroads.org/map/Cctv/392", "video": null, "label": "Traffic closest to the camera is traveling WEST"}], "roadway": "I-84", "county": ""}}, {"type": "Feature", "geometry": {"type": "Point", "coordinates": [-72.524712, 41.810862]}, "properties": {"name": "CAM 4 Manchester I-84 WB Exit 63 - Rt. 30 (Deming St.)", "kind": "live", "directions": [{"snapshot": "https://ctroads.org/map/Cctv/393", "video": null, "label": "Traffic closest to the camera is traveling WEST"}], "roadway": "I-84", "county": ""}}, {"type": "Feature", "geometry": {"type": "Point", "coordinates": [-72.543166, 41.80407]}, "properties": {"name": "CAM 6 Manchester I-84 WB E/O Exit 62 & 60 - E/O Buckland St.", "kind": "live", "directions": [{"snapshot": "https://ctroads.org/map/Cctv/394", "video": null, "label": "Traffic closest to the camera is traveling WEST"}], "roadway": "I-84", "county": ""}}, {"type": "Feature", "geometry": {"type": "Point", "coordinates": [-72.559717, 41.796149]}, "properties": {"name": "CAM 8 Manchester I-84 WB E/O Exit 61 - Tolland Tpke.", "kind": "live", "directions": [{"snapshot": "https://ctroads.org/map/Cctv/395", "video": null, "label": "Traffic closest to the camera is traveling WEST"}], "roadway": "I-84", "county": ""}}, {"type": "Feature", "geometry": {"type": "Point", "coordinates": [-72.570986, 41.780195]}, "properties": {"name": "CAM 10 Manchester I-84 WB W/O Exit 59 - Rt. 44  (Middle Tpke. W.)", "kind": "live", "directions": [{"snapshot": "https://ctroads.org/map/Cctv/396", "video": null, "label": "Traffic closest to the camera is traveling WEST"}], "roadway": "I-84", "county": ""}}, {"type": "Feature", "geometry": {"type": "Point", "coordinates": [-72.584741, 41.773941]}, "properties": {"name": "CAM 12 East Hartford I-84 WB E/O Exit 58 - I-384", "kind": "live", "directions": [{"snapshot": "https://ctroads.org/map/Cctv/397", "video": null, "label": "Traffic closest to the camera is traveling WEST"}], "roadway": "I-84", "county": ""}}, {"type": "Feature", "geometry": {"type": "Point", "coordinates": [-72.614134, 41.769057]}, "properties": {"name": "CAM 14 East Hartford I-84 WB E/O Exit 58 - E/O Simmons Rd.", "kind": "live", "directions": [{"snapshot": "https://ctroads.org/map/Cctv/398", "video": null, "label": "Traffic closest to the camera is traveling WEST"}], "roadway": "I-84", "county": ""}}, {"type": "Feature", "geometry": {"type": "Point", "coordinates": [-72.626827, 41.764838]}, "properties": {"name": "CAM 16 East Hartford I-84 EB Exit 58 - Roberts St.", "kind": "live", "directions": [{"snapshot": "https://ctroads.org/map/Cctv/399", "video": null, "label": "Traffic closest to the camera is traveling EAST"}], "roadway": "I-84", "county": ""}}, {"type": "Feature", "geometry": {"type": "Point", "coordinates": [-72.634422, 41.763675]}, "properties": {"name": "CAM 18 East Hartford I-84 WB Exit 57 - Rt. 15 to I-91 SB", "kind": "live", "directions": [{"snapshot": "https://ctroads.org/map/Cctv/400", "video": null, "label": "Traffic closest to the camera is traveling WEST"}], "roadway": "I-84", "county": ""}}, {"type": "Feature", "geometry": {"type": "Point", "coordinates": [-72.651212, 41.766413]}, "properties": {"name": "CAM 20 East Hartford I-84 WB Exit 56 - Governor St.", "kind": "live", "directions": [{"snapshot": "https://ctroads.org/map/Cctv/401", "video": null, "label": "Traffic closest to the camera is traveling WEST"}], "roadway": "I-84", "county": ""}}, {"type": "Feature", "geometry": {"type": "Point", "coordinates": [-72.655433, 41.767571]}, "properties": {"name": "CAM 22 East Hartford I-84 WB E/O Exit 51 - E/O East River Dr. (Rt. 2 WB on ramp)", "kind": "live", "directions": [{"snapshot": "https://ctroads.org/map/Cctv/402", "video": null, "label": "Traffic closest to the camera is traveling WEST"}], "roadway": "I-84", "county": ""}}, {"type": "Feature", "geometry": {"type": "Point", "coordinates": [-72.672614, 41.76984]}, "properties": {"name": "CAM 24 Hartford I-84 WB E/O Exit 48 - Rt. 44 (Main St.)", "kind": "live", "directions": [{"snapshot": "https://ctroads.org/map/Cctv/403", "video": null, "label": "Traffic closest to the camera is traveling WEST"}], "roadway": "I-84", "county": ""}}, {"type": "Feature", "geometry": {"type": "Point", "coordinates": [-72.675471, 41.770034]}, "properties": {"name": "CAM 26 Hartford I-84 WB E/O Exit 48 - Trumbull St.", "kind": "live", "directions": [{"snapshot": "https://ctroads.org/map/Cctv/404", "video": null, "label": "Traffic closest to the camera is traveling WEST"}], "roadway": "I-84", "county": ""}}, {"type": "Feature", "geometry": {"type": "Point", "coordinates": [-72.68002, 41.771417]}, "properties": {"name": "CAM 28 Hartford I-84 WB W/O Exit 48 - High St.", "kind": "live", "directions": [{"snapshot": "https://ctroads.org/map/Cctv/405", "video": null, "label": "Traffic closest to the camera is traveling WEST"}], "roadway": "I-84", "county": ""}}, {"type": "Feature", "geometry": {"type": "Point", "coordinates": [-72.698469, 41.761633]}, "properties": {"name": "CAM 30 Hartford I-84 WB Exit 46 - Laurel St.", "kind": "live", "directions": [{"snapshot": "https://ctroads.org/map/Cctv/406", "video": null, "label": "Traffic closest to the camera is traveling WEST"}], "roadway": "I-84", "county": ""}}, {"type": "Feature", "geometry": {"type": "Point", "coordinates": [-72.715568, 41.749665]}, "properties": {"name": "CAM 32 West Hartford I-84 EB Exit 44 - Prospect Ave.", "kind": "live", "directions": [{"snapshot": "https://ctroads.org/map/Cctv/407", "video": null, "label": "Traffic closest to the camera is traveling EAST"}], "roadway": "I-84", "county": ""}}, {"type": "Feature", "geometry": {"type": "Point", "coordinates": [-72.728839, 41.750269]}, "properties": {"name": "CAM 34 West Hartford I-84 WB E/O Exit 43 - S. Quaker Ln.", "kind": "live", "directions": [{"snapshot": "https://ctroads.org/map/Cctv/408", "video": null, "label": "Traffic closest to the camera is traveling WEST"}], "roadway": "I-84", "county": ""}}, {"type": "Feature", "geometry": {"type": "Point", "coordinates": [-72.739206, 41.737456]}, "properties": {"name": "CAM 36 West Hartford I-84 EB W/O Exit 43 - Mayflower St.", "kind": "live", "directions": [{"snapshot": "https://ctroads.org/map/Cctv/409", "video": null, "label": "Traffic closest to the camera is traveling EAST"}], "roadway": "I-84", "county": ""}}, {"type": "Feature", "geometry": {"type": "Point", "coordinates": [-72.758915, 41.726951]}, "properties": {"name": "CAM 38 West Hartford I-84 EB Exit 39A - Ridgewood Rd.", "kind": "live", "directions": [{"snapshot": "https://ctroads.org/map/Cctv/410", "video": null, "label": "Traffic closest to the camera is traveling EAST"}], "roadway": "I-84", "county": ""}}, {"type": "Feature", "geometry": {"type": "Point", "coordinates": [-72.781237, 41.726054]}, "properties": {"name": "CAM 40 Farmington I-84 WB E/O Exit 39 - E/O South Rd.", "kind": "live", "directions": [{"snapshot": "https://ctroads.org/map/Cctv/411", "video": null, "label": "Traffic closest to the camera is traveling WEST"}], "roadway": "I-84", "county": ""}}, {"type": "Feature", "geometry": {"type": "Point", "coordinates": [-72.7904, 41.721598]}, "properties": {"name": "CAM 42 Farmington I-84 WB Exit 38 - E/O Rt. 6 (Colt Hwy.)", "kind": "live", "directions": [{"snapshot": "https://ctroads.org/map/Cctv/412", "video": null, "label": "Traffic closest to the camera is traveling WEST"}], "roadway": "I-84", "county": ""}}, {"type": "Feature", "geometry": {"type": "Point", "coordinates": [-72.802267, 41.706786]}, "properties": {"name": "CAM 44 Farmington I-84 MEDIAN Exit 37 - Fienemann Rd.", "kind": "live", "directions": [{"snapshot": "https://ctroads.org/map/Cctv/413", "video": null, "label": ""}], "roadway": "I-84", "county": ""}}, {"type": "Feature", "geometry": {"type": "Point", "coordinates": [-72.814939, 41.68892]}, "properties": {"name": "CAM 46 Farmington I-84 WB E/O Exit 36 - E/O Long Swamp Rd.", "kind": "live", "directions": [{"snapshot": "https://ctroads.org/map/Cctv/414", "video": null, "label": "Traffic closest to the camera is traveling WEST"}], "roadway": "I-84", "county": ""}}, {"type": "Feature", "geometry": {"type": "Point", "coordinates": [-72.483624, 41.827608]}, "properties": {"name": "CAM 48 Vernon I-84 WB Exit 65 - Rt. 30 (Hartford Tpk.)", "kind": "live", "directions": [{"snapshot": "https://ctroads.org/map/Cctv/415", "video": null, "label": "Traffic closest to the camera is traveling WEST"}], "roadway": "I-84", "county": ""}}, {"type": "Feature", "geometry": {"type": "Point", "coordinates": [-72.816672, 41.683053]}, "properties": {"name": "CAM 50 New Britain I-84 EB W/O Exit 37 - Long Swamp Rd.", "kind": "live", "directions": [{"snapshot": "https://ctroads.org/map/Cctv/416", "video": null, "label": "Traffic closest to the camera is traveling EAST"}], "roadway": "I-84", "county": ""}}, {"type": "Feature", "geometry": {"type": "Point", "coordinates": [-72.820708, 41.670965]}, "properties": {"name": "CAM 52 New Britain I-84 EB W/O Exit 36 - North Mountain Rd.", "kind": "live", "directions": [{"snapshot": "https://ctroads.org/map/Cctv/417", "video": null, "label": "Traffic closest to the camera is traveling EAST"}], "roadway": "I-84", "county": ""}}, {"type": "Feature", "geometry": {"type": "Point", "coordinates": [-72.825785, 41.668142]}, "properties": {"name": "CAM 54 Plainville I-84 EB W/O Exit 36 - W/O Rt. 372 (W. Main St.)", "kind": "live", "directions": [{"snapshot": "https://ctroads.org/map/Cctv/418", "video": null, "label": "Traffic closest to the camera is traveling EAST"}], "roadway": "I-84", "county": ""}}, {"type": "Feature", "geometry": {"type": "Point", "coordinates": [-72.843254, 41.670123]}, "properties": {"name": "CAM 56 Plainville I-84 WB W/O Exit 33 - Rt. 72 EB", "kind": "live", "directions": [{"snapshot": "https://ctroads.org/map/Cctv/419", "video": null, "label": "Traffic closest to the camera is traveling WEST"}], "roadway": "I-84", "county": ""}}, {"type": "Feature", "geometry": {"type": "Point", "coordinates": [-72.857121, 41.64966]}, "properties": {"name": "CAM 58 Southington I-84 EB W/O Exit 33 - Shuttle Meadow Rd.", "kind": "live", "directions": [{"snapshot": "https://ctroads.org/map/Cctv/420", "video": null, "label": "Traffic closest to the camera is traveling EAST"}], "roadway": "I-84", "county": ""}}, {"type": "Feature", "geometry": {"type": "Point", "coordinates": [-72.873899, 41.632379]}, "properties": {"name": "CAM 60 Southington I-84 WB Exit 32 - Rt. 10 (Queen St.)", "kind": "live", "directions": [{"snapshot": "https://ctroads.org/map/Cctv/421", "video": null, "label": "Traffic closest to the camera is traveling WEST"}], "roadway": "I-84", "county": ""}}, {"type": "Feature", "geometry": {"type": "Point", "coordinates": [-72.891335, 41.621232]}, "properties": {"name": "CAM 62 Southington I-84 WB E/O Exit 31 - E/O Curtis St.", "kind": "live", "directions": [{"snapshot": "https://ctroads.org/map/Cctv/422", "video": null, "label": "Traffic closest to the camera is traveling WEST"}], "roadway": "I-84", "county": ""}}, {"type": "Feature", "geometry": {"type": "Point", "coordinates": [-72.903585, 41.597515]}, "properties": {"name": "CAM 64 Southington I-84 WB E/O Exit 30 - W. Center St.", "kind": "live", "directions": [{"snapshot": "https://ctroads.org/map/Cctv/423", "video": null, "label": "Traffic closest to the camera is traveling WEST"}], "roadway": "I-84", "county": ""}}, {"type": "Feature", "geometry": {"type": "Point", "coordinates": [-72.649155, 41.890962]}, "properties": {"name": "CAM 66 Windsor I-91 SB Exit 38 A/B - Kennedy Rd.", "kind": "live", "directions": [{"snapshot": "https://ctroads.org/map/Cctv/424", "video": null, "label": "Traffic closest to the camera is traveling SOUTH"}], "roadway": "I-91", "county": ""}}, {"type": "Feature", "geometry": {"type": "Point", "coordinates": [-72.662272, 41.879308]}, "properties": {"name": "CAM 68 Windsor I-91 SB Exit 38 A/B - N/O Rt. 75 (Poquonock Ave.)", "kind": "live", "directions": [{"snapshot": "https://ctroads.org/map/Cctv/425", "video": null, "label": "Traffic closest to the camera is traveling SOUTH"}], "roadway": "I-91", "county": ""}}, {"type": "Feature", "geometry": {"type": "Point", "coordinates": [-72.662641, 41.865908]}, "properties": {"name": "CAM 70 Windsor I-91 SB N/O Exit 37 - N/O Pigeon Hill Rd.", "kind": "live", "directions": [{"snapshot": "https://ctroads.org/map/Cctv/426", "video": null, "label": "Traffic closest to the camera is traveling SOUTH"}], "roadway": "I-91", "county": ""}}, {"type": "Feature", "geometry": {"type": "Point", "coordinates": [-72.664778, 41.852115]}, "properties": {"name": "CAM 72 Windsor I-91 SB Exit 37 - Rt. 305 (Bloomfield Ave.)", "kind": "live", "directions": [{"snapshot": "https://ctroads.org/map/Cctv/427", "video": null, "label": "Traffic closest to the camera is traveling SOUTH"}], "roadway": "I-91", "county": ""}}, {"type": "Feature", "geometry": {"type": "Point", "coordinates": [-72.666131, 41.825766]}, "properties": {"name": "CAM 74 Windsor I-91 SB N/O Exit 35B - N/O Rt. 218 (Putnam Hwy.)", "kind": "live", "directions": [{"snapshot": "https://ctroads.org/map/Cctv/428", "video": null, "label": "Traffic closest to the camera is traveling SOUTH"}], "roadway": "I-91", "county": ""}}, {"type": "Feature", "geometry": {"type": "Point", "coordinates": [-72.667043, 41.81854]}, "properties": {"name": "CAM 76 Windsor I-291 EB I-291 @ Exit 2A - Exit 1 (Rt. 218)", "kind": "live", "directions": [{"snapshot": "https://ctroads.org/map/Cctv/429", "video": null, "label": "Traffic closest to the camera is traveling EAST"}], "roadway": "I-291", "county": ""}}, {"type": "Feature", "geometry": {"type": "Point", "coordinates": [-72.659681, 41.804866]}, "properties": {"name": "CAM 78 Windsor I-91 SB Exit 34 - Rt. 159 (Windsor Ave.)", "kind": "live", "directions": [{"snapshot": "https://ctroads.org/map/Cctv/430", "video": null, "label": "Traffic closest to the camera is traveling SOUTH"}], "roadway": "I-91", "county": ""}}, {"type": "Feature", "geometry": {"type": "Point", "coordinates": [-72.658303, 41.787542]}, "properties": {"name": "CAM 80 Hartford I-91 SB Exit 33 - Jennings Rd.", "kind": "live", "directions": [{"snapshot": "https://ctroads.org/map/Cctv/431", "video": null, "label": "Traffic closest to the camera is traveling SOUTH"}], "roadway": "I-91", "county": ""}}, {"type": "Feature", "geometry": {"type": "Point", "coordinates": [-72.669242, 41.769859]}, "properties": {"name": "CAM 82 Hartford I-91 SB Exit 30 - I-84 East", "kind": "live", "directions": [{"snapshot": "https://ctroads.org/map/Cctv/432", "video": null, "label": "Traffic closest to the camera is traveling SOUTH"}], "roadway": "I-91", "county": ""}}, {"type": "Feature", "geometry": {"type": "Point", "coordinates": [-72.667748, 41.768269]}, "properties": {"name": "CAM 84 Hartford I-91 NB Exit 32B - S/O I-84", "kind": "live", "directions": [{"snapshot": "https://ctroads.org/map/Cctv/433", "video": null, "label": "Traffic closest to the camera is traveling NORTH"}], "roadway": "I-91", "county": ""}}, {"type": "Feature", "geometry": {"type": "Point", "coordinates": [-72.664, 41.758]}, "properties": {"name": "CAM 86 Hartford I-91 SB Exit 29A - Whitehead Hwy.", "kind": "live", "directions": [{"snapshot": "https://ctroads.org/map/Cctv/434", "video": null, "label": "Traffic closest to the camera is traveling SOUTH"}], "roadway": "I-91", "county": ""}}, {"type": "Feature", "geometry": {"type": "Point", "coordinates": [-72.658206, 41.748744]}, "properties": {"name": "CAM 88 Hartford I-91 NB Exit 29 - Rt. 5 & 15", "kind": "live", "directions": [{"snapshot": "https://ctroads.org/map/Cctv/435", "video": null, "label": "Traffic closest to the camera is traveling NORTH"}], "roadway": "I-91", "county": ""}}, {"type": "Feature", "geometry": {"type": "Point", "coordinates": [-72.663579, 41.732531]}, "properties": {"name": "CAM 90 Hartford I-91 SB N/O Exit 26 - Rt. 5 & 15", "kind": "live", "directions": [{"snapshot": "https://ctroads.org/map/Cctv/436", "video": null, "label": "Traffic closest to the camera is traveling SOUTH"}], "roadway": "I-91", "county": ""}}, {"type": "Feature", "geometry": {"type": "Point", "coordinates": [-72.648769, 41.714892]}, "properties": {"name": "CAM 92 Wethersfield I-91 SB Exit 26 - Great Meadow Rd.", "kind": "live", "directions": [{"snapshot": "https://ctroads.org/map/Cctv/437", "video": null, "label": "Traffic closest to the camera is traveling SOUTH"}], "roadway": "I-91", "county": ""}}, {"type": "Feature", "geometry": {"type": "Point", "coordinates": [-72.645625, 41.706591]}, "properties": {"name": "CAM 94 Wethersfield I-91 SB Rt. 3 NB - I-91 SB Exit 25", "kind": "live", "directions": [{"snapshot": "https://ctroads.org/map/Cctv/438", "video": null, "label": "Traffic closest to the camera is traveling SOUTH"}], "roadway": "I-91", "county": ""}}, {"type": "Feature", "geometry": {"type": "Point", "coordinates": [-72.64903, 41.688793]}, "properties": {"name": "CAM 96 Wethersfield I-91 MEDIAN Exit 25 & 24 - N/O Middeltown Ave.", "kind": "live", "directions": [{"snapshot": "https://ctroads.org/map/Cctv/439", "video": null, "label": ""}], "roadway": "I-91", "county": ""}}, {"type": "Feature", "geometry": {"type": "Point", "coordinates": [-72.658951, 41.674992]}, "properties": {"name": "CAM 98 Rocky Hill I-91 MEDIAN Exit 24 & 23 - Orchard St.", "kind": "live", "directions": [{"snapshot": "https://ctroads.org/map/Cctv/440", "video": null, "label": ""}], "roadway": "I-91", "county": ""}}, {"type": "Feature", "geometry": {"type": "Point", "coordinates": [-72.665595, 41.665871]}, "properties": {"name": "CAM 100 Rocky Hill I-91 NB S/O Exit 24 - Gilbert Ave.", "kind": "live", "directions": [{"snapshot": "https://ctroads.org/map/Cctv/441", "video": null, "label": "Traffic closest to the camera is traveling NORTH"}], "roadway": "I-91", "county": ""}}, {"type": "Feature", "geometry": {"type": "Point", "coordinates": [-72.671266, 41.65926]}, "properties": {"name": "CAM 102 Rocky Hill I-91 SB N/O Exit 23 - Rt. 160 (Elm St.)", "kind": "live", "directions": [{"snapshot": "https://ctroads.org/map/Cctv/442", "video": null, "label": "Traffic closest to the camera is traveling SOUTH"}], "roadway": "I-91", "county": ""}}, {"type": "Feature", "geometry": {"type": "Point", "coordinates": [-72.675395, 41.644347]}, "properties": {"name": "CAM 104 Rocky Hill I-91 NB S/O Exit 23 - S/O West St.", "kind": "live", "directions": [{"snapshot": "https://ctroads.org/map/Cctv/443", "video": null, "label": "Traffic closest to the camera is traveling NORTH"}], "roadway": "I-91", "county": ""}}, {"type": "Feature", "geometry": {"type": "Point", "coordinates": [-72.682573, 41.637127]}, "properties": {"name": "CAM 106 Rocky Hill I-91 NB S/O Exit 23 - S/O Rt. 3 (Cromwell Ave.)", "kind": "live", "directions": [{"snapshot": "https://ctroads.org/map/Cctv/444", "video": null, "label": "Traffic closest to the camera is traveling NORTH"}], "roadway": "I-91", "county": ""}}, {"type": "Feature", "geometry": {"type": "Point", "coordinates": [-72.686382, 41.629631]}, "properties": {"name": "CAM 108 Cromwell I-91 NB S/O Exit 23 - Rt. 9 NB on ramp to I-91 NB", "kind": "live", "directions": [{"snapshot": "https://ctroads.org/map/Cctv/445", "video": null, "label": "Traffic closest to the camera is traveling NORTH"}], "roadway": "I-91", "county": ""}}, {"type": "Feature", "geometry": {"type": "Point", "coordinates": [-72.690359, 41.624007]}, "properties": {"name": "CAM 110 Cromwell I-91 NB N/O Exit 23 - Rt. 9 NB", "kind": "live", "directions": [{"snapshot": "https://ctroads.org/map/Cctv/446", "video": null, "label": "Traffic closest to the camera is traveling NORTH"}], "roadway": "I-91", "county": ""}}, {"type": "Feature", "geometry": {"type": "Point", "coordinates": [-72.696282, 41.61598]}, "properties": {"name": "CAM 112 Cromwell I-91 NB Exit 22 N&S - Evergreen Rd.", "kind": "live", "directions": [{"snapshot": "https://ctroads.org/map/Cctv/447", "video": null, "label": "Traffic closest to the camera is traveling NORTH"}], "roadway": "I-91", "county": ""}}, {"type": "Feature", "geometry": {"type": "Point", "coordinates": [-72.657133, 41.766786]}, "properties": {"name": "CAM 114 East Hartford RT 2 WB W/O Exit 2W - I-84 EB Exit 55", "kind": "live", "directions": [{"snapshot": "https://ctroads.org/map/Cctv/448", "video": null, "label": "Traffic closest to the camera is traveling WEST"}], "roadway": "RT 2", "county": ""}}, {"type": "Feature", "geometry": {"type": "Point", "coordinates": [-72.650305, 41.755155]}, "properties": {"name": "CAM 116 East Hartford RT 2 EB W/O Exit 5 - Rt. 5 & 15", "kind": "live", "directions": [{"snapshot": "https://ctroads.org/map/Cctv/449", "video": null, "label": "Traffic closest to the camera is traveling EAST"}], "roadway": "RT 2", "county": ""}}, {"type": "Feature", "geometry": {"type": "Point", "coordinates": [-72.644061, 41.75277]}, "properties": {"name": "CAM 117 East Hartford RT 2 WB E/O Exit 4 - Willow St. Ext", "kind": "live", "directions": [{"snapshot": "https://ctroads.org/map/Cctv/450", "video": null, "label": "Traffic closest to the camera is traveling WEST"}], "roadway": "RT-2", "county": ""}}, {"type": "Feature", "geometry": {"type": "Point", "coordinates": [-72.637397, 41.742925]}, "properties": {"name": "CAM 119 East Hartford RT 2 EB Exit 5A - High St.", "kind": "live", "directions": [{"snapshot": "https://ctroads.org/map/Cctv/451", "video": null, "label": "Traffic closest to the camera is traveling EAST"}], "roadway": "RT-2", "county": ""}}, {"type": "Feature", "geometry": {"type": "Point", "coordinates": [-72.624931, 41.734299]}, "properties": {"name": "CAM 122 East Hartford RT 2 EB Exit 5C - Maple St.", "kind": "live", "directions": [{"snapshot": "https://ctroads.org/map/Cctv/452", "video": null, "label": "Traffic closest to the camera is traveling EAST"}], "roadway": "RT 2", "county": ""}}, {"type": "Feature", "geometry": {"type": "Point", "coordinates": [-72.611362, 41.726203]}, "properties": {"name": "CAM 124 Glastonbury RT 2 EB Exit 6 - Rt. 3", "kind": "live", "directions": [{"snapshot": "https://ctroads.org/map/Cctv/453", "video": null, "label": "Traffic closest to the camera is traveling EAST"}], "roadway": "RT 2", "county": ""}}, {"type": "Feature", "geometry": {"type": "Point", "coordinates": [-72.904822, 41.57561]}, "properties": {"name": "CAM 127 Southington I-84 WB W/O Exit 29 - ", "kind": "live", "directions": [{"snapshot": "https://ctroads.org/map/Cctv/454", "video": null, "label": "Traffic closest to the camera is traveling WEST"}], "roadway": "I-84", "county": ""}}, {"type": "Feature", "geometry": {"type": "Point", "coordinates": [-72.908878, 41.569552]}, "properties": {"name": "CAM 129 Southington I-84 EB E/O Exit 27 - Burritt St", "kind": "live", "directions": [{"snapshot": "https://ctroads.org/map/Cctv/455", "video": null, "label": "Traffic closest to the camera is traveling EAST"}], "roadway": "I-84", "county": ""}}, {"type": "Feature", "geometry": {"type": "Point", "coordinates": [-72.925964, 41.556154]}, "properties": {"name": "CAM 131 Cheshire I-84 EB Exit 28 - Marion Rd.", "kind": "live", "directions": [{"snapshot": "https://ctroads.org/map/Cctv/456", "video": null, "label": "Traffic closest to the camera is traveling EAST"}], "roadway": "I-84", "county": ""}}, {"type": "Feature", "geometry": {"type": "Point", "coordinates": [-72.955061, 41.541168]}, "properties": {"name": "CAM 133 Cheshire I-84 WB Exit 26 - West of Waterbury Rd.", "kind": "live", "directions": [{"snapshot": "https://ctroads.org/map/Cctv/457", "video": null, "label": "Traffic closest to the camera is traveling WEST"}], "roadway": "I-84", "county": ""}}, {"type": "Feature", "geometry": {"type": "Point", "coordinates": [-73.039813, 41.551077]}, "properties": {"name": "CAM 140 Waterbury I-84 EB W/O Exit 23 - S. Main St.", "kind": "live", "directions": [{"snapshot": "https://ctroads.org/map/Cctv/458", "video": null, "label": "Traffic closest to the camera is traveling EAST"}], "roadway": "I-84", "county": ""}}, {"type": "Feature", "geometry": {"type": "Point", "coordinates": [-73.056164, 41.551469]}, "properties": {"name": "CAM 142 Waterbury I-84 WB E/O Exit 18 - Highland Ave.", "kind": "live", "directions": [{"snapshot": "https://ctroads.org/map/Cctv/459", "video": null, "label": "Traffic closest to the camera is traveling WEST"}], "roadway": "I-84", "county": ""}}, {"type": "Feature", "geometry": {"type": "Point", "coordinates": [-73.082886, 41.540048]}, "properties": {"name": "CAM 144 Waterbury I-84 WB Exit 17 - Chace Pkwy.", "kind": "live", "directions": [{"snapshot": "https://ctroads.org/map/Cctv/460", "video": null, "label": "Traffic closest to the camera is traveling WEST"}], "roadway": "I-84", "county": ""}}, {"type": "Feature", "geometry": {"type": "Point", "coordinates": [-73.35291, 41.42587]}, "properties": {"name": "CAM 146 Newtown I-84 WB E/O Exit 9 - Tunnel Rd.", "kind": "live", "directions": [{"snapshot": "https://ctroads.org/map/Cctv/461", "video": null, "label": "Traffic closest to the camera is traveling WEST"}], "roadway": "I-84", "county": ""}}, {"type": "Feature", "geometry": {"type": "Point", "coordinates": [-73.454573, 41.410518]}, "properties": {"name": "CAM 148 Danbury I-84 WB Exit 6 - Rt. 37 (North St.)", "kind": "live", "directions": [{"snapshot": "https://ctroads.org/map/Cctv/462", "video": null, "label": "Traffic closest to the camera is traveling WEST"}], "roadway": "I-84", "county": ""}}, {"type": "Feature", "geometry": {"type": "Point", "coordinates": [-73.476904, 41.391247]}, "properties": {"name": "CAM 150 Danbury I-84 EB Exit 4 - Lake Ave.", "kind": "live", "directions": [{"snapshot": "https://ctroads.org/map/Cctv/463", "video": null, "label": "Traffic closest to the camera is traveling EAST"}], "roadway": "I-84", "county": ""}}, {"type": "Feature", "geometry": {"type": "Point", "coordinates": [-72.67425, 41.604]}, "properties": {"name": "CAM 156 Cromwell RT 9 SB Exit 27 - Rt 372 Overpass", "kind": "live", "directions": [{"snapshot": "https://ctroads.org/map/Cctv/464", "video": null, "label": "Traffic closest to the camera is traveling SOUTH"}], "roadway": "RT 9", "county": ""}}, {"type": "Feature", "geometry": {"type": "Point", "coordinates": [-72.643013, 41.570166]}, "properties": {"name": "CAM 158 Portland RT 66 EB Quarry Lane - & Arrigoni Bridge", "kind": "live", "directions": [{"snapshot": "https://ctroads.org/map/Cctv/465", "video": null, "label": "Traffic closest to the camera is traveling EAST"}], "roadway": "RT 66", "county": ""}}, {"type": "Feature", "geometry": {"type": "Point", "coordinates": [-72.645216, 41.559191]}, "properties": {"name": "CAM 160 Middletown RT 9 SB Exit 23B - Dekoven Dr.", "kind": "live", "directions": [{"snapshot": "https://ctroads.org/map/Cctv/466", "video": null, "label": "Traffic closest to the camera is traveling SOUTH"}], "roadway": "RT 9", "county": ""}}, {"type": "Feature", "geometry": {"type": "Point", "coordinates": [-72.618688, 41.53417]}, "properties": {"name": "CAM 162 Middletown RT 9 SB N/O Exit 21 - Rt 155 (Randolph Rd)", "kind": "live", "directions": [{"snapshot": "https://ctroads.org/map/Cctv/467", "video": null, "label": "Traffic closest to the camera is traveling SOUTH"}], "roadway": "RT 9", "county": ""}}, {"type": "Feature", "geometry": {"type": "Point", "coordinates": [-73.057645, 41.567987]}, "properties": {"name": "CAM 164 Waterbury RT 8 SB N/O Exit 34 - Rt. 73 (Watertown Ave.)", "kind": "live", "directions": [{"snapshot": "https://ctroads.org/map/Cctv/468", "video": null, "label": "Traffic closest to the camera is traveling SOUTH"}], "roadway": "RT 8", "county": ""}}, {"type": "Feature", "geometry": {"type": "Point", "coordinates": [-73.05458, 41.55281]}, "properties": {"name": "CAM 166 Waterbury RT 8 SB N/O Exit 30 - N/O I-84 next to Riverside St.", "kind": "live", "directions": [{"snapshot": "https://ctroads.org/map/Cctv/469", "video": null, "label": "Traffic closest to the camera is traveling SOUTH"}], "roadway": "RT 8", "county": ""}}, {"type": "Feature", "geometry": {"type": "Point", "coordinates": [-73.046872, 41.549399]}, "properties": {"name": "CAM 168 Waterbury RT 8 NB N/O Exit 30 - S/O I-84 vic. Riverside St.", "kind": "live", "directions": [{"snapshot": "https://ctroads.org/map/Cctv/470", "video": null, "label": "Traffic closest to the camera is traveling SOUTH"}], "roadway": "RT-8", "county": ""}}, {"type": "Feature", "geometry": {"type": "Point", "coordinates": [-73.043655, 41.532764]}, "properties": {"name": "CAM 170 Waterbury RT 8 NB S/O Exit 30 - N/O Nicholas Dr.", "kind": "live", "directions": [{"snapshot": "https://ctroads.org/map/Cctv/471", "video": null, "label": "Traffic closest to the camera is traveling NORTH"}], "roadway": "RT 8", "county": ""}}, {"type": "Feature", "geometry": {"type": "Point", "coordinates": [-73.049769, 41.515807]}, "properties": {"name": "CAM 172 Naugatuck RT 8 SB Exit 29 - Waterbury Rd.", "kind": "live", "directions": [{"snapshot": "https://ctroads.org/map/Cctv/472", "video": null, "label": "Traffic closest to the camera is traveling SOUTH"}], "roadway": "RT 8", "county": ""}}, {"type": "Feature", "geometry": {"type": "Point", "coordinates": [-73.050362, 41.471945]}, "properties": {"name": "CAM 174 Naugatuck RT 8 NB S/O Exit 26 - Cross St.", "kind": "live", "directions": [{"snapshot": "https://ctroads.org/map/Cctv/473", "video": null, "label": "Traffic closest to the camera is traveling NORTH"}], "roadway": "RT 8", "county": ""}}, {"type": "Feature", "geometry": {"type": "Point", "coordinates": [-72.877832, 41.677354]}, "properties": {"name": "CAM 177 Plainville RT 72 WB W/O Exit 5 - At N Washington St OP", "kind": "live", "directions": [{"snapshot": "https://ctroads.org/map/Cctv/474", "video": null, "label": "Traffic closest to the camera is traveling WEST"}], "roadway": "RT-72", "county": ""}}, {"type": "Feature", "geometry": {"type": "Point", "coordinates": [-73.026686, 41.5452]}, "properties": {"name": "Cam 137 Waterbury I-84 EB W/O Exit 25 Hamilton Ave", "kind": "live", "directions": [{"snapshot": "https://ctroads.org/map/Cctv/475", "video": null, "label": ""}], "roadway": "I-84 EB Waterbury W/O Exit 23 (Washington St)", "county": ""}}, {"type": "Feature", "geometry": {"type": "Point", "coordinates": [-73.009764, 41.5397]}, "properties": {"name": "Cam 136 Waterbury I-84 EB @ Harpers Ferry Rd OP", "kind": "live", "directions": [{"snapshot": "https://ctroads.org/map/Cctv/476", "video": null, "label": ""}], "roadway": "I-84 EB Waterbury E/O Exit 23 (Harpers Ferry Rd)", "county": ""}}, {"type": "Feature", "geometry": {"type": "Point", "coordinates": [-72.994553, 41.541064]}, "properties": {"name": "Cam 135 Waterbury I-84 WB @ Exit 25 East of Scott Rd", "kind": "live", "directions": [{"snapshot": "https://ctroads.org/map/Cctv/477", "video": null, "label": ""}], "roadway": "I-84 WB Waterbury", "county": ""}}, {"type": "Feature", "geometry": {"type": "Point", "coordinates": [-72.70461764, 41.60442031]}, "properties": {"name": "CAM 199 I-91 SB Cromwell @ X21 N/O Berlin Rd", "kind": "live", "directions": [{"snapshot": "https://ctroads.org/map/Cctv/478", "video": null, "label": "Traffic closest to the camera is traveling SOUTH"}], "roadway": "I-91 SB Cromwell", "county": ""}}, {"type": "Feature", "geometry": {"type": "Point", "coordinates": [-72.70368723, 41.60415026]}, "properties": {"name": "CAM 198 I-91 NB Cromwell @ X21 N/O Berlin Rd", "kind": "live", "directions": [{"snapshot": "https://ctroads.org/map/Cctv/479", "video": null, "label": "Traffic closest to the camera is traveling NORTH"}], "roadway": "I-91 NB Cromwell", "county": ""}}, {"type": "Feature", "geometry": {"type": "Point", "coordinates": [-72.70803166, 41.5991282]}, "properties": {"name": "CAM 200 I-91 SB Middletown S/O X21 Berlin Rd", "kind": "live", "directions": [{"snapshot": "https://ctroads.org/map/Cctv/480", "video": null, "label": "Traffic closest to the camera is traveling SOUTH"}], "roadway": "I-91 SB Middletown s/o Exit 21", "county": ""}}, {"type": "Feature", "geometry": {"type": "Point", "coordinates": [-72.70768179, 41.59835335]}, "properties": {"name": "CAM 201 I-91 NB Middletown S/O X21 Berlin Rd", "kind": "live", "directions": [{"snapshot": "https://ctroads.org/map/Cctv/481", "video": null, "label": "Traffic closest to the camera is traveling NORTH"}], "roadway": "I-91 NB Middletown s/o Exit 21", "county": ""}}, {"type": "Feature", "geometry": {"type": "Point", "coordinates": [-72.71194487, 41.58637438]}, "properties": {"name": "CAM 203 I-91 SB Middletown N/O X20 Smith St", "kind": "live", "directions": [{"snapshot": "https://ctroads.org/map/Cctv/482", "video": null, "label": "Traffic closest to the camera is traveling SOUTH"}], "roadway": "I-91 SB Middletown n/o Exit 20", "county": ""}}, {"type": "Feature", "geometry": {"type": "Point", "coordinates": [-72.71114126, 41.58668572]}, "properties": {"name": "CAM 202 I-91 NB Middletown N/O X20 Smith St", "kind": "live", "directions": [{"snapshot": "https://ctroads.org/map/Cctv/483", "video": null, "label": "Traffic closest to the camera is traveling NORTH"}], "roadway": "I-91 NB Middletown n/o Exit 20", "county": ""}}, {"type": "Feature", "geometry": {"type": "Point", "coordinates": [-72.72437514, 41.57106238]}, "properties": {"name": "CAM 204 I-91 SB Middletown @ X20 Country Club Rd", "kind": "live", "directions": [{"snapshot": "https://ctroads.org/map/Cctv/484", "video": null, "label": "Traffic closest to the camera is traveling SOUTH"}], "roadway": "I-91 SB Middletown", "county": ""}}, {"type": "Feature", "geometry": {"type": "Point", "coordinates": [-72.72551104, 41.56884138]}, "properties": {"name": "CAM 205 I-91 NB Middletown @ X20 Country Club Rd", "kind": "live", "directions": [{"snapshot": "https://ctroads.org/map/Cctv/485", "video": null, "label": "Traffic closest to the camera is traveling NORTH"}], "roadway": "I-91 NB Middletown", "county": ""}}, {"type": "Feature", "geometry": {"type": "Point", "coordinates": [-72.74169601, 41.55687389]}, "properties": {"name": "CAM 206 I-91 NB Middletown @ Rest Area", "kind": "live", "directions": [{"snapshot": "https://ctroads.org/map/Cctv/486", "video": null, "label": "Traffic closest to the camera is traveling NORTH"}], "roadway": "I-91 NB Middletown", "county": ""}}, {"type": "Feature", "geometry": {"type": "Point", "coordinates": [-72.74813473, 41.54699707]}, "properties": {"name": "CAM 207 I-91 SB Middletown N/O X19 Preston Ave", "kind": "live", "directions": [{"snapshot": "https://ctroads.org/map/Cctv/487", "video": null, "label": "Traffic closest to the camera is traveling SOUTH"}], "roadway": "I-91 SB Middletown n/o Exit 19", "county": ""}}, {"type": "Feature", "geometry": {"type": "Point", "coordinates": [-72.750697, 41.54409211]}, "properties": {"name": "CAM 208 I-91 NB Meriden @ X19 Preston Ave", "kind": "live", "directions": [{"snapshot": "https://ctroads.org/map/Cctv/488", "video": null, "label": "Traffic closest to the camera is traveling NORTH"}], "roadway": "I-91 NB Meriden", "county": ""}}, {"type": "Feature", "geometry": {"type": "Point", "coordinates": [-72.76776166, 41.53414632]}, "properties": {"name": "CAM 209 I-91 SB Meriden N/O X17 Wilbur Cross Pkwy", "kind": "live", "directions": [{"snapshot": "https://ctroads.org/map/Cctv/489", "video": null, "label": "Traffic closest to the camera is traveling SOUTH"}], "roadway": "I-91 SB Meriden n/o Exit 17", "county": ""}}, {"type": "Feature", "geometry": {"type": "Point", "coordinates": [-72.77065247, 41.52691555]}, "properties": {"name": "CAM 210 I-91 SB Meriden S/O X17 East Main St", "kind": "live", "directions": [{"snapshot": "https://ctroads.org/map/Cctv/490", "video": null, "label": "Traffic closest to the camera is traveling SOUTH"}], "roadway": "I-91 SB Meriden s/o Exit 17", "county": ""}}, {"type": "Feature", "geometry": {"type": "Point", "coordinates": [-72.76993936, 41.5114887]}, "properties": {"name": "CAM 212 I-91 SB Meriden N/O X15 Murdock Ave", "kind": "live", "directions": [{"snapshot": "https://ctroads.org/map/Cctv/491", "video": null, "label": "Traffic closest to the camera is traveling SOUTH"}], "roadway": "I-91 SB Meriden n/o Exit 15", "county": ""}}, {"type": "Feature", "geometry": {"type": "Point", "coordinates": [-72.903136, 41.558475]}, "properties": {"name": "CAM 197 I-691 WB Cheshire E/O Exit 8A Peck Lane", "kind": "live", "directions": [{"snapshot": "https://ctroads.org/map/Cctv/492", "video": null, "label": "Traffic closest to the camera is traveling WEST"}], "roadway": "I-691 WB Cheshire e/o Exit 2", "county": ""}}, {"type": "Feature", "geometry": {"type": "Point", "coordinates": [-72.890269, 41.556698]}, "properties": {"name": "CAM 196 I-691 EB Cheshire at Exit 7 Highland Ave", "kind": "live", "directions": [{"snapshot": "https://ctroads.org/map/Cctv/493", "video": null, "label": "Traffic closest to the camera is traveling EAST"}], "roadway": "I-691 EB Cheshire", "county": ""}}, {"type": "Feature", "geometry": {"type": "Point", "coordinates": [-72.869116, 41.555226]}, "properties": {"name": "CAM 195 I-691 WB Southington E/O Exit 7 South End Rd", "kind": "live", "directions": [{"snapshot": "https://ctroads.org/map/Cctv/494", "video": null, "label": "Traffic closest to the camera is traveling WEST"}], "roadway": "I-691 WB Southington e/o Exit 3", "county": ""}}, {"type": "Feature", "geometry": {"type": "Point", "coordinates": [-72.857331, 41.553175]}, "properties": {"name": "CAM 194 I-691 EB Southington W/O Exit 5 Pratt St", "kind": "live", "directions": [{"snapshot": "https://ctroads.org/map/Cctv/495", "video": null, "label": "Traffic closest to the camera is traveling EAST"}], "roadway": "I-691 EB Southington w/o Exit 4", "county": ""}}, {"type": "Feature", "geometry": {"type": "Point", "coordinates": [-72.848531, 41.555108]}, "properties": {"name": "CAM 193 I-691 WB Southington at Exit 5 Meriden-Waterbury Tpke", "kind": "live", "directions": [{"snapshot": "https://ctroads.org/map/Cctv/496", "video": null, "label": "Traffic closest to the camera is traveling WEST"}], "roadway": "I-691 WB Southington", "county": ""}}, {"type": "Feature", "geometry": {"type": "Point", "coordinates": [-72.830752, 41.550751]}, "properties": {"name": "CAM 192 I-691 WB Meriden E/O Exit 5 Hubbard Park Dr", "kind": "live", "directions": [{"snapshot": "https://ctroads.org/map/Cctv/497", "video": null, "label": "Traffic closest to the camera is traveling WEST"}], "roadway": "I-691 WB Meriden e/o Exit 4", "county": ""}}, {"type": "Feature", "geometry": {"type": "Point", "coordinates": [-72.814498, 41.550282]}, "properties": {"name": "CAM 191 I-691 WB Meriden W/O Exit 3 Chamberlain Hwy", "kind": "live", "directions": [{"snapshot": "https://ctroads.org/map/Cctv/498", "video": null, "label": "Traffic closest to the camera is traveling WEST"}], "roadway": "I-691 WB Meriden w/o Exit 6", "county": ""}}, {"type": "Feature", "geometry": {"type": "Point", "coordinates": [-72.798711, 41.544283]}, "properties": {"name": "CAM 190 I-691 EB Meriden E/O Exit 2B Colony St", "kind": "live", "directions": [{"snapshot": "https://ctroads.org/map/Cctv/499", "video": null, "label": "Traffic closest to the camera is traveling EAST"}], "roadway": "I-691 EB Meriden e/o Exit 7", "county": ""}}, {"type": "Feature", "geometry": {"type": "Point", "coordinates": [-72.785529, 41.542547]}, "properties": {"name": "CAM 189 I-691 EB Meriden at Exit 2A Broad St", "kind": "live", "directions": [{"snapshot": "https://ctroads.org/map/Cctv/500", "video": null, "label": "Traffic closest to the camera is traveling EAST"}], "roadway": "I-691 EB Meriden", "county": ""}}, {"type": "Feature", "geometry": {"type": "Point", "coordinates": [-72.771244, 41.540278]}, "properties": {"name": "CAM 188 I-691 WB Meriden W/O Exit 1C Wilbur Cross Pkwy", "kind": "live", "directions": [{"snapshot": "https://ctroads.org/map/Cctv/501", "video": null, "label": "Traffic closest to the camera is traveling WEST"}], "roadway": "I-691 WB Meriden w/o Exit 9", "county": ""}}, {"type": "Feature", "geometry": {"type": "Point", "coordinates": [-72.770606, 41.539086]}, "properties": {"name": "CAM 187 I-691 EB Meriden at Exit 1B Wilbur Cross Pkwy", "kind": "live", "directions": [{"snapshot": "https://ctroads.org/map/Cctv/502", "video": null, "label": "Traffic closest to the camera is traveling EAST"}], "roadway": "I-691 EB Meriden", "county": ""}}, {"type": "Feature", "geometry": {"type": "Point", "coordinates": [-72.760796, 41.536824]}, "properties": {"name": "CAM 186 I-691 EB Meriden at Exit 1A Interstate 91", "kind": "live", "directions": [{"snapshot": "https://ctroads.org/map/Cctv/503", "video": null, "label": "Traffic closest to the camera is traveling EAST"}], "roadway": "I-691 EB Meriden", "county": ""}}, {"type": "Feature", "geometry": {"type": "Point", "coordinates": [-72.752711, 41.532268]}, "properties": {"name": "CAM 185 RTE 66 WB Meriden E/O Exit 1A Preston Ave", "kind": "live", "directions": [{"snapshot": "https://ctroads.org/map/Cctv/504", "video": null, "label": "Traffic closest to the camera is traveling WEST"}], "roadway": "RT-66 WB Meriden", "county": ""}}, {"type": "Feature", "geometry": {"type": "Point", "coordinates": [-72.7757551, 41.51699096]}, "properties": {"name": "CAM 211 RTE 15 NB Meriden S/O X67 Paddock Ave", "kind": "live", "directions": [{"snapshot": "https://ctroads.org/map/Cctv/505", "video": null, "label": "Traffic closest to the camera is traveling NORTH"}], "roadway": "RT-5 NB Meriden", "county": ""}}, {"type": "Feature", "geometry": {"type": "Point", "coordinates": [-73.289005, 41.416845]}, "properties": {"name": "CAM 138 Newtown I-84 EB at Exit 10 Church Hill Rd", "kind": "live", "directions": [{"snapshot": "https://ctroads.org/map/Cctv/506", "video": null, "label": "Traffic closest to the camera is traveling EAST"}], "roadway": "I-84 EB Newtown", "county": ""}}, {"type": "Feature", "geometry": {"type": "Point", "coordinates": [-72.777029, 41.67019]}, "properties": {"name": "CAM 213 New Britain Rt 72 WB @ X1A (Rte 9) ", "kind": "live", "directions": [{"snapshot": "https://ctroads.org/map/Cctv/507", "video": null, "label": "Traffic closest to the camera is traveling WEST"}], "roadway": "RT-72 WB Exit 1A (Rte 9)", "county": ""}}, {"type": "Feature", "geometry": {"type": "Point", "coordinates": [-72.79076844, 41.6677568]}, "properties": {"name": "CAM 214 New Britain Rt 72 WB @ X1D (Lake St) ", "kind": "live", "directions": [{"snapshot": "https://ctroads.org/map/Cctv/508", "video": null, "label": "Traffic closest to the camera is traveling WEST"}], "roadway": "RT-72 WB Exit 1D (Lake St)", "county": ""}}, {"type": "Feature", "geometry": {"type": "Point", "coordinates": [-72.8065063, 41.66349491]}, "properties": {"name": "CAM 215 New Britain Rt 72 EB @ X2 (Rte 372) ", "kind": "live", "directions": [{"snapshot": "https://ctroads.org/map/Cctv/509", "video": null, "label": "Traffic closest to the camera is traveling EAST"}], "roadway": "RT-72 EB Exit 2 (Rte 372)", "county": ""}}, {"type": "Feature", "geometry": {"type": "Point", "coordinates": [-72.82004341, 41.66745776]}, "properties": {"name": "CAM 216 New Britain Rt 72 WB @ X3 (I-84)\u00a0 ", "kind": "live", "directions": [{"snapshot": "https://ctroads.org/map/Cctv/510", "video": null, "label": "Traffic closest to the camera is traveling WEST"}], "roadway": "RT-72 WB Exit 3 (I-84)", "county": ""}}, {"type": "Feature", "geometry": {"type": "Point", "coordinates": [-72.7643347, 41.71322913]}, "properties": {"name": "CAM 217 New Britain Rt 9 NB @ X39 (Hartford Rd) ", "kind": "live", "directions": [{"snapshot": "https://ctroads.org/map/Cctv/511", "video": null, "label": "Traffic closest to the camera is traveling NORTH"}], "roadway": "RT-9 North Exit 39 (Hartford Rd)", "county": ""}}, {"type": "Feature", "geometry": {"type": "Point", "coordinates": [-72.75828095, 41.70855576]}, "properties": {"name": "CAM 218 Newington Rt 9 NB S/O X39\u00a0\u00a0 ", "kind": "live", "directions": [{"snapshot": "https://ctroads.org/map/Cctv/512", "video": null, "label": "Traffic closest to the camera is traveling NORTH"}], "roadway": "RT-9 North", "county": ""}}, {"type": "Feature", "geometry": {"type": "Point", "coordinates": [-72.7577239, 41.6994283]}, "properties": {"name": "CAM 219 Newington Rt 9 NB @ X38 (Ella Grasso Blvd)", "kind": "live", "directions": [{"snapshot": "https://ctroads.org/map/Cctv/513", "video": null, "label": "Traffic closest to the camera is traveling NORTH"}], "roadway": "RT-9 North Exit 38 (Ella Grasso Blvd)", "county": ""}}, {"type": "Feature", "geometry": {"type": "Point", "coordinates": [-72.75846234, 41.69353836]}, "properties": {"name": "CAM 220 New Britain Rt 9 SB @ X38 (East St) ", "kind": "live", "directions": [{"snapshot": "https://ctroads.org/map/Cctv/514", "video": null, "label": "Traffic closest to the camera is traveling SOUTH"}], "roadway": "RT-9 South Exit 38 (Esat St)", "county": ""}}, {"type": "Feature", "geometry": {"type": "Point", "coordinates": [-72.75877184, 41.68297827]}, "properties": {"name": "CAM 221 New Britain Rt 9 NB S/O X38\u00a0\u00a0 ", "kind": "live", "directions": [{"snapshot": "https://ctroads.org/map/Cctv/515", "video": null, "label": "Traffic closest to the camera is traveling NORTH"}], "roadway": "RT-9 North", "county": ""}}, {"type": "Feature", "geometry": {"type": "Point", "coordinates": [-72.76223591, 41.68182343]}, "properties": {"name": "CAM 222 New Britain Rt 9 SB N/O X37A (East St UP)", "kind": "live", "directions": [{"snapshot": "https://ctroads.org/map/Cctv/516", "video": null, "label": "Traffic closest to the camera is traveling SOUTH"}], "roadway": "RT-9 South", "county": ""}}, {"type": "Feature", "geometry": {"type": "Point", "coordinates": [-72.77259451, 41.67390617]}, "properties": {"name": "CAM 223 New Britain Rt 9 SB @ X37A (Stanley St) ", "kind": "live", "directions": [{"snapshot": "https://ctroads.org/map/Cctv/517", "video": null, "label": "Traffic closest to the camera is traveling SOUTH"}], "roadway": "RT-9 South Exit 37A (Stanley St)", "county": ""}}, {"type": "Feature", "geometry": {"type": "Point", "coordinates": [-72.7750138, 41.66815824]}, "properties": {"name": "CAM 224 New Britain Rt 9 SB S/O X36SB\u00a0\u00a0 ", "kind": "live", "directions": [{"snapshot": "https://ctroads.org/map/Cctv/518", "video": null, "label": "Traffic closest to the camera is traveling SOUTH"}], "roadway": "RT-9 South", "county": ""}}, {"type": "Feature", "geometry": {"type": "Point", "coordinates": [-72.77273258, 41.66839567]}, "properties": {"name": "CAM 225 New Britain Rt 9 NB @ X37 (CTfastrak Busway) ", "kind": "live", "directions": [{"snapshot": "https://ctroads.org/map/Cctv/519", "video": null, "label": "Traffic closest to the camera is traveling NORTH"}], "roadway": "RT-9 North Exit 37 (Ctfastrak Busway)", "county": ""}}, {"type": "Feature", "geometry": {"type": "Point", "coordinates": [-72.77464776, 41.661899]}, "properties": {"name": "CAM 226 New Britain Rt 9 SB X36NB (Whiting St)\u00a0 ", "kind": "live", "directions": [{"snapshot": "https://ctroads.org/map/Cctv/520", "video": null, "label": "Traffic closest to the camera is traveling SOUTH"}], "roadway": "RT-9 South", "county": ""}}, {"type": "Feature", "geometry": {"type": "Point", "coordinates": [-72.77011169, 41.65198888]}, "properties": {"name": "CAM 227 New Britain Rt 9 SB S/O X35\u00a0\u00a0 ", "kind": "live", "directions": [{"snapshot": "https://ctroads.org/map/Cctv/521", "video": null, "label": "Traffic closest to the camera is traveling SOUTH"}], "roadway": "RT-9 South", "county": ""}}, {"type": "Feature", "geometry": {"type": "Point", "coordinates": [-72.76353237, 41.64662659]}, "properties": {"name": "CAM 228 Berlin Rt 9 NB @ X34 (Rte 571) ", "kind": "live", "directions": [{"snapshot": "https://ctroads.org/map/Cctv/522", "video": null, "label": "Traffic closest to the camera is traveling NORTH"}], "roadway": "RT-9 North", "county": ""}}, {"type": "Feature", "geometry": {"type": "Point", "coordinates": [-72.75275659, 41.63581749]}, "properties": {"name": "CAM 229 Berlin Rt 9 NB @ X33 (Christian Ln) ", "kind": "live", "directions": [{"snapshot": "https://ctroads.org/map/Cctv/523", "video": null, "label": "Traffic closest to the camera is traveling NORTH"}], "roadway": "RT-9 North Exit 33 (Christian Ln)", "county": ""}}, {"type": "Feature", "geometry": {"type": "Point", "coordinates": [-72.74924156, 41.62795397]}, "properties": {"name": "CAM 230 Berlin Rt 9 SB N/O X32\u00a0\u00a0 ", "kind": "live", "directions": [{"snapshot": "https://ctroads.org/map/Cctv/524", "video": null, "label": "Traffic closest to the camera is traveling SOUTH"}], "roadway": "RT-9 South", "county": ""}}, {"type": "Feature", "geometry": {"type": "Point", "coordinates": [-72.74140012, 41.62484633]}, "properties": {"name": "CAM 231 Berlin Rt 9 SB @ X31SB (Rte 5/15) ", "kind": "live", "directions": [{"snapshot": "https://ctroads.org/map/Cctv/525", "video": null, "label": "Traffic closest to the camera is traveling SOUTH"}], "roadway": "RT-9 South Exit 31 (Rte 5/15)", "county": ""}}, {"type": "Feature", "geometry": {"type": "Point", "coordinates": [-72.73430702, 41.62110293]}, "properties": {"name": "CAM 232 Berlin Rt 9 SB @ X31NB (Rte 372) ", "kind": "live", "directions": [{"snapshot": "https://ctroads.org/map/Cctv/526", "video": null, "label": "Traffic closest to the camera is traveling SOUTH"}], "roadway": "RT-9 South Exit 32 On Ramp", "county": ""}}, {"type": "Feature", "geometry": {"type": "Point", "coordinates": [-72.71839615, 41.62466187]}, "properties": {"name": "CAM 233 Berlin Rt 9 SB S/O X31\u00a0\u00a0 ", "kind": "live", "directions": [{"snapshot": "https://ctroads.org/map/Cctv/527", "video": null, "label": "Traffic closest to the camera is traveling SOUTH"}], "roadway": "RT-9 South", "county": ""}}, {"type": "Feature", "geometry": {"type": "Point", "coordinates": [-72.70120588, 41.62599517]}, "properties": {"name": "CAM 234 Cromwell Rt 9 NB N/O X30NB\u00a0\u00a0 ", "kind": "live", "directions": [{"snapshot": "https://ctroads.org/map/Cctv/528", "video": null, "label": "Traffic closest to the camera is traveling NORTH"}], "roadway": "RT-9 North", "county": ""}}, {"type": "Feature", "geometry": {"type": "Point", "coordinates": [-72.70094754, 41.62472321]}, "properties": {"name": "CAM 235 Cromwell Rt 9 SB N/O X30SB\u00a0\u00a0 ", "kind": "live", "directions": [{"snapshot": "https://ctroads.org/map/Cctv/529", "video": null, "label": "Traffic closest to the camera is traveling SOUTH"}], "roadway": "RT-9 South", "county": ""}}, {"type": "Feature", "geometry": {"type": "Point", "coordinates": [-72.68435169, 41.62234765]}, "properties": {"name": "CAM 236 Cromwell Rt 9 NB @ X29 (I-91 NB) ", "kind": "live", "directions": [{"snapshot": "https://ctroads.org/map/Cctv/530", "video": null, "label": "Traffic closest to the camera is traveling NORTH"}], "roadway": "RT-9 Exit 29 (I-91 North", "county": ""}}, {"type": "Feature", "geometry": {"type": "Point", "coordinates": [-72.68057514, 41.61487838]}, "properties": {"name": "CAM 237 Cromwell Rt 9 SB S/O X29\u00a0\u00a0 ", "kind": "live", "directions": [{"snapshot": "https://ctroads.org/map/Cctv/531", "video": null, "label": "Traffic closest to the camera is traveling SOUTH"}], "roadway": "RT-9 South", "county": ""}}, {"type": "Feature", "geometry": {"type": "Point", "coordinates": [-72.67817456, 41.61223536]}, "properties": {"name": "CAM 238 Cromwell Rt 9 NB N/O X27 (Evergreen Rd OP)", "kind": "live", "directions": [{"snapshot": "https://ctroads.org/map/Cctv/532", "video": null, "label": "Traffic closest to the camera is traveling NORTH"}], "roadway": "RT-9 North", "county": ""}}, {"type": "Feature", "geometry": {"type": "Point", "coordinates": [-72.66621468, 41.5931736]}, "properties": {"name": "CAM 239 Cromwell Rt 9 SB S/O X27\u00a0\u00a0 ", "kind": "live", "directions": [{"snapshot": "https://ctroads.org/map/Cctv/533", "video": null, "label": "Traffic closest to the camera is traveling SOUTH"}], "roadway": "RT-9 South", "county": ""}}, {"type": "Feature", "geometry": {"type": "Point", "coordinates": [-72.64997122, 41.58922173]}, "properties": {"name": "CAM 240 Cromwell Rt 9 NB N/O X25\u00a0\u00a0 ", "kind": "live", "directions": [{"snapshot": "https://ctroads.org/map/Cctv/534", "video": null, "label": "Traffic closest to the camera is traveling NORTH"}], "roadway": "RT-9 North", "county": ""}}, {"type": "Feature", "geometry": {"type": "Point", "coordinates": [-72.63359437, 41.55388918]}, "properties": {"name": "CAM 241 Middletown Rt 9 NB @ X22 (Silver St) ", "kind": "live", "directions": [{"snapshot": "https://ctroads.org/map/Cctv/535", "video": null, "label": "Traffic closest to the camera is traveling NORTH"}], "roadway": "RT-9 North Exit 22 (Silver St)", "county": ""}}, {"type": "Feature", "geometry": {"type": "Point", "coordinates": [-73.6467, 41.008141]}, "properties": {"name": "CAM 2 Greenwich I-95 SB N/O Exit 2 - N/O Delavan Ave.", "kind": "live", "directions": [{"snapshot": "https://ctroads.org/map/Cctv/536", "video": null, "label": "Traffic closest to the camera is traveling SOUTH"}], "roadway": "I-95", "county": ""}}, {"type": "Feature", "geometry": {"type": "Point", "coordinates": [-73.636701, 41.016982]}, "properties": {"name": "CAM 3 Greenwich I-95 SB N/O Exit 2 - S/O Field Pt. Rd On-Ramp", "kind": "live", "directions": [{"snapshot": "https://ctroads.org/map/Cctv/537", "video": null, "label": "Traffic closest to the camera is traveling SOUTH"}], "roadway": "I-95", "county": ""}}, {"type": "Feature", "geometry": {"type": "Point", "coordinates": [-73.624443, 41.019943]}, "properties": {"name": "CAM 4 Greenwich I-95 NB Exit 3 - Arch St.", "kind": "live", "directions": [{"snapshot": "https://ctroads.org/map/Cctv/538", "video": null, "label": "Traffic closest to the camera is traveling NORTH"}], "roadway": "I-95", "county": ""}}, {"type": "Feature", "geometry": {"type": "Point", "coordinates": [-73.611226, 41.025229]}, "properties": {"name": "CAM 5 Greenwich I-95 SB N/O Exit 3 - N/O Davis Ave.", "kind": "live", "directions": [{"snapshot": "https://ctroads.org/map/Cctv/539", "video": null, "label": "Traffic closest to the camera is traveling SOUTH"}], "roadway": "I-95", "county": ""}}, {"type": "Feature", "geometry": {"type": "Point", "coordinates": [-73.602265, 41.027869]}, "properties": {"name": "CAM 6 Greenwich I-95 NB Exit 4 - Indian Field Rd.", "kind": "live", "directions": [{"snapshot": "https://ctroads.org/map/Cctv/540", "video": null, "label": "Traffic closest to the camera is traveling NORTH"}], "roadway": "I-95", "county": ""}}, {"type": "Feature", "geometry": {"type": "Point", "coordinates": [-73.586365, 41.038998]}, "properties": {"name": "CAM 8 Greenwich I-95 SB S/O Exit 5 - Riverside Ave.", "kind": "live", "directions": [{"snapshot": "https://ctroads.org/map/Cctv/541", "video": null, "label": "Traffic closest to the camera is traveling SOUTH"}], "roadway": "I-95", "county": ""}}, {"type": "Feature", "geometry": {"type": "Point", "coordinates": [-73.56689, 41.045005]}, "properties": {"name": "CAM 10 Greenwich I-95 SB S/O Exit 5 - Laddins Rock Rd.", "kind": "live", "directions": [{"snapshot": "https://ctroads.org/map/Cctv/542", "video": null, "label": "Traffic closest to the camera is traveling SOUTH"}], "roadway": "I-95", "county": ""}}, {"type": "Feature", "geometry": {"type": "Point", "coordinates": [-73.528787, 41.053575]}, "properties": {"name": "CAM 13 Stamford I-95 SB Exit 8 - N/O Elm St.", "kind": "live", "directions": [{"snapshot": "https://ctroads.org/map/Cctv/543", "video": null, "label": "Traffic closest to the camera is traveling SOUTH"}], "roadway": "I-95", "county": ""}}, {"type": "Feature", "geometry": {"type": "Point", "coordinates": [-73.512148, 41.058417]}, "properties": {"name": "CAM 15 Stamford I-95 NB at 9", "kind": "live", "directions": [{"snapshot": "https://ctroads.org/map/Cctv/544", "video": null, "label": "Traffic closest to the camera is traveling NORTH"}], "roadway": "I-95 Northbound Exit 9 Stamford, Route 1", "county": ""}}, {"type": "Feature", "geometry": {"type": "Point", "coordinates": [-73.504939, 41.066888]}, "properties": {"name": "CAM 16 Darien I-95 SB N/O Exit 9 - Darien Rest Area", "kind": "live", "directions": [{"snapshot": "https://ctroads.org/map/Cctv/545", "video": null, "label": "Traffic closest to the camera is traveling SOUTH"}], "roadway": "I-95", "county": ""}}, {"type": "Feature", "geometry": {"type": "Point", "coordinates": [-73.467481, 41.074497]}, "properties": {"name": "CAM 20 Darien I-95 NB Exit 12 - Tokeneke Rd.", "kind": "live", "directions": [{"snapshot": "https://ctroads.org/map/Cctv/546", "video": null, "label": "Traffic closest to the camera is traveling NORTH"}], "roadway": "I-95", "county": ""}}, {"type": "Feature", "geometry": {"type": "Point", "coordinates": [-73.462176, 41.080462]}, "properties": {"name": "CAM 21 Darien I-95 NB S/O Exit 13 - Darien Rest Area", "kind": "live", "directions": [{"snapshot": "https://ctroads.org/map/Cctv/547", "video": null, "label": "Traffic closest to the camera is traveling NORTH"}], "roadway": "I-95", "county": ""}}, {"type": "Feature", "geometry": {"type": "Point", "coordinates": [-73.457136, 41.088295]}, "properties": {"name": "CAM 22 Darien I-95 SB Exit 13 - Rt. 1 (Boston Post Rd.)", "kind": "live", "directions": [{"snapshot": "https://ctroads.org/map/Cctv/548", "video": null, "label": "Traffic closest to the camera is traveling SOUTH"}], "roadway": "I-95", "county": ""}}, {"type": "Feature", "geometry": {"type": "Point", "coordinates": [-73.423292, 41.106616]}, "properties": {"name": "CAM 26 Norwalk I-95 SB Exit 15 - Stuart Ave.", "kind": "live", "directions": [{"snapshot": "https://ctroads.org/map/Cctv/549", "video": null, "label": "Traffic closest to the camera is traveling SOUTH"}], "roadway": "I-95", "county": ""}}, {"type": "Feature", "geometry": {"type": "Point", "coordinates": [-73.418957, 41.11007]}, "properties": {"name": "CAM 27 Norwalk US 7 MEDIAN S/O Exit 1 - Connecticut Ave.", "kind": "live", "directions": [{"snapshot": "https://ctroads.org/map/Cctv/550", "video": null, "label": ""}], "roadway": "US 7", "county": ""}}, {"type": "Feature", "geometry": {"type": "Point", "coordinates": [-73.414147, 41.106458]}, "properties": {"name": "CAM 28 Norwalk I-95 NB Exit 15 - US 7", "kind": "live", "directions": [{"snapshot": "https://ctroads.org/map/Cctv/551", "video": null, "label": "Traffic closest to the camera is traveling NORTH"}], "roadway": "I-95", "county": ""}}, {"type": "Feature", "geometry": {"type": "Point", "coordinates": [-73.405776, 41.108289]}, "properties": {"name": "CAM 29 Norwalk I-95 NB Exit 16 - East Ave.", "kind": "live", "directions": [{"snapshot": "https://ctroads.org/map/Cctv/552", "video": null, "label": "Traffic closest to the camera is traveling NORTH"}], "roadway": "I-95", "county": ""}}, {"type": "Feature", "geometry": {"type": "Point", "coordinates": [-73.391059, 41.113234]}, "properties": {"name": "CAM 30 Norwalk I-95 NB S/O Exit 16 - S/O Saugatuck Ave.", "kind": "live", "directions": [{"snapshot": "https://ctroads.org/map/Cctv/553", "video": null, "label": "Traffic closest to the camera is traveling NORTH"}], "roadway": "I-95", "county": ""}}, {"type": "Feature", "geometry": {"type": "Point", "coordinates": [-73.378412, 41.120072]}, "properties": {"name": "CAM 31 Westport I-95 SB Exit 17 - Saugatuck Ave.", "kind": "live", "directions": [{"snapshot": "https://ctroads.org/map/Cctv/554", "video": null, "label": "Traffic closest to the camera is traveling SOUTH"}], "roadway": "I-95", "county": ""}}, {"type": "Feature", "geometry": {"type": "Point", "coordinates": [-73.353777, 41.12262]}, "properties": {"name": "CAM 33 Westport I-95 SB Exit 18 - Hales Rd.", "kind": "live", "directions": [{"snapshot": "https://ctroads.org/map/Cctv/555", "video": null, "label": "Traffic closest to the camera is traveling SOUTH"}], "roadway": "I-95", "county": ""}}, {"type": "Feature", "geometry": {"type": "Point", "coordinates": [-73.338892, 41.123569]}, "properties": {"name": "CAM 34 Westport I-95 SB S/O Exit 18 - S/O Sherwood Is. Connector", "kind": "live", "directions": [{"snapshot": "https://ctroads.org/map/Cctv/556", "video": null, "label": "Traffic closest to the camera is traveling SOUTH"}], "roadway": "I-95", "county": ""}}, {"type": "Feature", "geometry": {"type": "Point", "coordinates": [-73.326301, 41.120392]}, "properties": {"name": "CAM 35 Westport I-95 NB Exit 18 - Sherwood Is. Connector", "kind": "live", "directions": [{"snapshot": "https://ctroads.org/map/Cctv/557", "video": null, "label": "Traffic closest to the camera is traveling NORTH"}], "roadway": "I-95", "county": ""}}, {"type": "Feature", "geometry": {"type": "Point", "coordinates": [-73.31504, 41.123663]}, "properties": {"name": "CAM 36 Westport I-95 SB N/O Exit18 - New Creek Rd.", "kind": "live", "directions": [{"snapshot": "https://ctroads.org/map/Cctv/558", "video": null, "label": "Traffic closest to the camera is traveling SOUTH"}], "roadway": "I-95", "county": ""}}, {"type": "Feature", "geometry": {"type": "Point", "coordinates": [-73.309448, 41.124611]}, "properties": {"name": "CAM 37 Westport I-95 NB S/O Exit 19 - At Maple Ln.", "kind": "live", "directions": [{"snapshot": "https://ctroads.org/map/Cctv/559", "video": null, "label": "Traffic closest to the camera is traveling NORTH"}], "roadway": "I-95", "county": ""}}, {"type": "Feature", "geometry": {"type": "Point", "coordinates": [-73.284952, 41.141092]}, "properties": {"name": "CAM 39 Fairfield I-95 SB Exit 19 - Mill Hill Rd.", "kind": "live", "directions": [{"snapshot": "https://ctroads.org/map/Cctv/560", "video": null, "label": "Traffic closest to the camera is traveling SOUTH"}], "roadway": "I-95", "county": ""}}, {"type": "Feature", "geometry": {"type": "Point", "coordinates": [-73.270201, 41.142355]}, "properties": {"name": "CAM 40 Fairfield I-95 NB Exit 21 - N. Pine Creek Rd.", "kind": "live", "directions": [{"snapshot": "https://ctroads.org/map/Cctv/561", "video": null, "label": "Traffic closest to the camera is traveling NORTH"}], "roadway": "I-95", "county": ""}}, {"type": "Feature", "geometry": {"type": "Point", "coordinates": [-73.256561, 41.146836]}, "properties": {"name": "CAM 41 Fairfield I-95 NB Exit 22 - Fairfield Rest Area", "kind": "live", "directions": [{"snapshot": "https://ctroads.org/map/Cctv/562", "video": null, "label": "Traffic closest to the camera is traveling NORTH"}], "roadway": "I-95", "county": ""}}, {"type": "Feature", "geometry": {"type": "Point", "coordinates": [-73.247637, 41.150787]}, "properties": {"name": "CAM 42 Fairfield I-95 NB Exit 22 - North Benson Rd.", "kind": "live", "directions": [{"snapshot": "https://ctroads.org/map/Cctv/563", "video": null, "label": "Traffic closest to the camera is traveling NORTH"}], "roadway": "I-95", "county": ""}}, {"type": "Feature", "geometry": {"type": "Point", "coordinates": [-73.226688, 41.168415]}, "properties": {"name": "CAM 45 Fairfield I-95 SB N/O Exits 24 - Brentwood Ave.", "kind": "live", "directions": [{"snapshot": "https://ctroads.org/map/Cctv/564", "video": null, "label": "Traffic closest to the camera is traveling SOUTH"}], "roadway": "I-95", "county": ""}}, {"type": "Feature", "geometry": {"type": "Point", "coordinates": [-73.201954, 41.167177]}, "properties": {"name": "CAM 47 Bridgeport I-95 NB Exit 26 - Wordin Ave.", "kind": "live", "directions": [{"snapshot": "https://ctroads.org/map/Cctv/565", "video": null, "label": "Traffic closest to the camera is traveling NORTH"}], "roadway": "I-95", "county": ""}}, {"type": "Feature", "geometry": {"type": "Point", "coordinates": [-73.193992, 41.170293]}, "properties": {"name": "CAM 48 Bridgeport I-95 NB Exit 27 - Mytle Ave.", "kind": "live", "directions": [{"snapshot": "https://ctroads.org/map/Cctv/566", "video": null, "label": "Traffic closest to the camera is traveling NORTH"}], "roadway": "I-95", "county": ""}}, {"type": "Feature", "geometry": {"type": "Point", "coordinates": [-73.188199, 41.173607]}, "properties": {"name": "CAM 49 Bridgeport I-95 NB S/O Exit 28 - Main St.", "kind": "live", "directions": [{"snapshot": "https://ctroads.org/map/Cctv/567", "video": null, "label": "Traffic closest to the camera is traveling NORTH"}], "roadway": "I-95", "county": ""}}, {"type": "Feature", "geometry": {"type": "Point", "coordinates": [-73.179801, 41.179446]}, "properties": {"name": "CAM 50 Bridgeport I-95 SB N/O Exit 27 - Pembroke St.", "kind": "live", "directions": [{"snapshot": "https://ctroads.org/map/Cctv/568", "video": null, "label": "Traffic closest to the camera is traveling SOUTH"}], "roadway": "I-95", "county": ""}}, {"type": "Feature", "geometry": {"type": "Point", "coordinates": [-73.195479, 41.175222]}, "properties": {"name": "CAM 225 Bridgeport RT 8 SB Exit 1 - John St.", "kind": "live", "directions": [{"snapshot": "https://ctroads.org/map/Cctv/569", "video": null, "label": "Traffic closest to the camera is traveling SOUTH"}], "roadway": "RT 8", "county": ""}}, {"type": "Feature", "geometry": {"type": "Point", "coordinates": [-73.154053, 41.174629]}, "properties": {"name": "CAM 53 Stratford I-95 NB Exit 30 - Surf Ave.", "kind": "live", "directions": [{"snapshot": "https://ctroads.org/map/Cctv/570", "video": null, "label": "Traffic closest to the camera is traveling NORTH"}], "roadway": "I-95", "county": ""}}, {"type": "Feature", "geometry": {"type": "Point", "coordinates": [-73.138399, 41.184594]}, "properties": {"name": "CAM 55 Stratford I-95 NB Exit 31 - South Ave.", "kind": "live", "directions": [{"snapshot": "https://ctroads.org/map/Cctv/571", "video": null, "label": "Traffic closest to the camera is traveling NORTH"}], "roadway": "I-95", "county": ""}}, {"type": "Feature", "geometry": {"type": "Point", "coordinates": [-73.129425, 41.194958]}, "properties": {"name": "CAM 56 Stratford I-95 SB Exits 32 - Main St.", "kind": "live", "directions": [{"snapshot": "https://ctroads.org/map/Cctv/572", "video": null, "label": "Traffic closest to the camera is traveling SOUTH"}], "roadway": "I-95", "county": ""}}, {"type": "Feature", "geometry": {"type": "Point", "coordinates": [-73.115976, 41.200948]}, "properties": {"name": "CAM 57 Stratford I-95 SB N/O Exit 32 - Rt. 1 & 110 (East Main St.)", "kind": "live", "directions": [{"snapshot": "https://ctroads.org/map/Cctv/573", "video": null, "label": "Traffic closest to the camera is traveling SOUTH"}], "roadway": "I-95", "county": ""}}, {"type": "Feature", "geometry": {"type": "Point", "coordinates": [-73.1031, 41.206598]}, "properties": {"name": "CAM 58 Milford I-95 SB N/O Exit 32 - Naugatuck Ave.", "kind": "live", "directions": [{"snapshot": "https://ctroads.org/map/Cctv/574", "video": null, "label": "Traffic closest to the camera is traveling SOUTH"}], "roadway": "I-95", "county": ""}}, {"type": "Feature", "geometry": {"type": "Point", "coordinates": [-73.09341, 41.208076]}, "properties": {"name": "CAM 59 Milford I-95 NB Exit 34 - Rt. 1 (Bridgeport Ave.)", "kind": "live", "directions": [{"snapshot": "https://ctroads.org/map/Cctv/575", "video": null, "label": "Traffic closest to the camera is traveling NORTH"}], "roadway": "I-95", "county": ""}}, {"type": "Feature", "geometry": {"type": "Point", "coordinates": [-73.087855, 41.213772]}, "properties": {"name": "CAM 60 Milford I-95 SB Exit 35 - School House Rd.", "kind": "live", "directions": [{"snapshot": "https://ctroads.org/map/Cctv/576", "video": null, "label": "Traffic closest to the camera is traveling SOUTH"}], "roadway": "I-95", "county": ""}}, {"type": "Feature", "geometry": {"type": "Point", "coordinates": [-73.078683, 41.22175]}, "properties": {"name": "CAM 61 Milford I-95 NB Exit 36 - Plains Rd.", "kind": "live", "directions": [{"snapshot": "https://ctroads.org/map/Cctv/577", "video": null, "label": "Traffic closest to the camera is traveling NORTH"}], "roadway": "I-95", "county": ""}}, {"type": "Feature", "geometry": {"type": "Point", "coordinates": [-73.070395, 41.232737]}, "properties": {"name": "CAM 62 Milford I-95 SB Exit 38 - Milford Parkway", "kind": "live", "directions": [{"snapshot": "https://ctroads.org/map/Cctv/578", "video": null, "label": "Traffic closest to the camera is traveling SOUTH"}], "roadway": "I-95", "county": ""}}, {"type": "Feature", "geometry": {"type": "Point", "coordinates": [-73.062698, 41.236796]}, "properties": {"name": "CAM 63 Milford I-95 SB Exit 38 - West River St.", "kind": "live", "directions": [{"snapshot": "https://ctroads.org/map/Cctv/579", "video": null, "label": "Traffic closest to the camera is traveling SOUTH"}], "roadway": "I-95", "county": ""}}, {"type": "Feature", "geometry": {"type": "Point", "coordinates": [-73.05142, 41.237081]}, "properties": {"name": "CAM 64 Milford I-95 SB Exit 38 - Orange Ave.", "kind": "live", "directions": [{"snapshot": "https://ctroads.org/map/Cctv/580", "video": null, "label": "Traffic closest to the camera is traveling SOUTH"}], "roadway": "I-95", "county": ""}}, {"type": "Feature", "geometry": {"type": "Point", "coordinates": [-73.039753, 41.233342]}, "properties": {"name": "CAM 65 Milford I-95 NB Exit 39B - Rt. 1 (Boston Post Rd.)", "kind": "live", "directions": [{"snapshot": "https://ctroads.org/map/Cctv/581", "video": null, "label": "Traffic closest to the camera is traveling NORTH"}], "roadway": "I-95", "county": ""}},