{"type": "FeatureCollection", "features": [{"type": "Feature", "geometry": {"type": "Point", "coordinates": [-77.3236, 39.2773]}, "properties": {"name": "I-270 & Old Hundred Rd (MD 109)(CAM 165)", "kind": "live", "directions": [{"snapshot": null, "video": "https://strmr5.sha.maryland.gov/rtplive/7a00a1dc01250075004d823633235daa/playlist.m3u8", "label": ""}], "roadway": "IS-270", "county": ""}}, {"type": "Feature", "geometry": {"type": "Point", "coordinates": [-77.42188, 39.39761]}, "properties": {"name": "I-70 East of I-270", "kind": "live", "directions": [{"snapshot": null, "video": "https://strmr5.sha.maryland.gov/rtplive/9201ff5801f700d700437a45351f0214/playlist.m3u8", "label": ""}], "roadway": "IS-70", "county": ""}}, {"type": "Feature", "geometry": {"type": "Point", "coordinates": [-76.65623, 38.96042]}, "properties": {"name": "US 50 AT MD 424", "kind": "live", "directions": [{"snapshot": null, "video": "https://strmr5.sha.maryland.gov/rtplive/000109f6004b00a6004af03676235daa/playlist.m3u8", "label": ""}], "roadway": "US-50", "county": ""}}, {"type": "Feature", "geometry": {"type": "Point", "coordinates": [-76.64165, 39.128563]}, "properties": {"name": "I-97 AT NEW CUT ROAD", "kind": "live", "directions": [{"snapshot": null, "video": "https://strmr5.sha.maryland.gov/rtplive/00012848007300bc004c823633235daa/playlist.m3u8", "label": ""}], "roadway": "IS-97", "county": ""}}, {"type": "Feature", "geometry": {"type": "Point", "coordinates": [-76.50345, 39.358448]}, "properties": {"name": "I-695 Median at MM32.3 (C027)", "kind": "live", "directions": [{"snapshot": null, "video": "https://strmr3.sha.maryland.gov/rtplive/3801d561005e00d00057fa36c4235c0a/playlist.m3u8", "label": ""}], "roadway": "IS-695", "county": ""}}, {"type": "Feature", "geometry": {"type": "Point", "coordinates": [-76.83091, 39.29633]}, "properties": {"name": "I-70 E at EX 87 US 29", "kind": "live", "directions": [{"snapshot": null, "video": "https://strmr3.sha.maryland.gov/rtplive/d6015dff0075004f0060d336c4235c0a/playlist.m3u8", "label": ""}], "roadway": "IS-70", "county": ""}}, {"type": "Feature", "geometry": {"type": "Point", "coordinates": [-76.984184, 38.363857]}, "properties": {"name": "US 301 HWN BRIDGE G8", "kind": "live", "directions": [{"snapshot": null, "video": "https://strmr3.sha.maryland.gov/rtplive/15026b78004600330063d336c4235c0a/playlist.m3u8", "label": ""}], "roadway": "US-301", "county": ""}}, {"type": "Feature", "geometry": {"type": "Point", "coordinates": [-77.13176, 39.137234]}, "properties": {"name": "ICC MD 200 WB, DECKOVER APPROACH, MM 4.7 (C208)", "kind": "live", "directions": [{"snapshot": null, "video": "https://strmr5.sha.maryland.gov/rtplive/7f014af00502004e004d06363d235daa/playlist.m3u8", "label": ""}], "roadway": "MD-200", "county": ""}}, {"type": "Feature", "geometry": {"type": "Point", "coordinates": [-77.02986, 38.357517]}, "properties": {"name": "US 301 HWN BRIDGE M.M. 141.5", "kind": "live", "directions": [{"snapshot": null, "video": "https://strmr3.sha.maryland.gov/rtplive/1201953f005200330063d336c4235c0a/playlist.m3u8", "label": ""}], "roadway": "", "county": ""}}, {"type": "Feature", "geometry": {"type": "Point", "coordinates": [-75.170685, 38.380375]}, "properties": {"name": "MD 90 AT MD 589", "kind": "live", "directions": [{"snapshot": null, "video": "https://strmr5.sha.maryland.gov/rtplive/c1000a2d004700e700498436cf235d0a/playlist.m3u8", "label": ""}], "roadway": "MD-90", "county": ""}}, {"type": "Feature", "geometry": {"type": "Point", "coordinates": [-76.95575, 39.073334]}, "properties": {"name": "Columbia Pk (US 29) at Fairland Rd", "kind": "live", "directions": [{"snapshot": null, "video": "https://strmr3.sha.maryland.gov/rtplive/0701fd2100120075004d823633235daa/playlist.m3u8", "label": ""}], "roadway": "US-29", "county": ""}}, {"type": "Feature", "geometry": {"type": "Point", "coordinates": [-76.86648, 38.84008]}, "properties": {"name": "I-95/495 AT MD 4", "kind": "live", "directions": [{"snapshot": null, "video": "https://strmr5.sha.maryland.gov/rtplive/6a01d75801f700d700437a45351f0214/playlist.m3u8", "label": ""}], "roadway": "IS-95", "county": ""}}, {"type": "Feature", "geometry": {"type": "Point", "coordinates": [-77.13517, 39.13806]}, "properties": {"name": "ICC MD 200 EB, DECKOVER INTERIOR, MM 4.5 (C206)", "kind": "live", "directions": [{"snapshot": null, "video": "https://strmr5.sha.maryland.gov/rtplive/a70150c00554004e004d06363d235daa/playlist.m3u8", "label": ""}], "roadway": "MD-200", "county": ""}}, {"type": "Feature", "geometry": {"type": "Point", "coordinates": [-75.96052, 39.629566]}, "properties": {"name": "I-95 S of Md 272 (C004) MP 99.4", "kind": "live", "directions": [{"snapshot": null, "video": "https://strmr5.sha.maryland.gov/rtplive/d501656c00e20039004606363d235daa/playlist.m3u8", "label": ""}], "roadway": "IS-95", "county": ""}}, {"type": "Feature", "geometry": {"type": "Point", "coordinates": [-77.12762, 39.03092]}, "properties": {"name": "I-270 & Old Georgetown Rd (MD 187)(CAM 4)", "kind": "live", "directions": [{"snapshot": null, "video": "https://strmr5.sha.maryland.gov/rtplive/a900598700f30074004d823633235daa/playlist.m3u8", "label": ""}], "roadway": "IS-270", "county": ""}}, {"type": "Feature", "geometry": {"type": "Point", "coordinates": [-77.88799, 39.6518]}, "properties": {"name": "I-70 West at St. Paul Rd", "kind": "live", "directions": [{"snapshot": null, "video": "https://strmr3.sha.maryland.gov/rtplive/1b00d699004a008e0057fa36c4235c0a/playlist.m3u8", "label": ""}], "roadway": "IS-70", "county": ""}}, {"type": "Feature", "geometry": {"type": "Point", "coordinates": [-76.01932, 39.03072]}, "properties": {"name": "US 301 AT MD 304 QUEEN ANNE SAFETY DR TWR", "kind": "live", "directions": [{"snapshot": null, "video": "https://strmr5.sha.maryland.gov/rtplive/e30009710093007b00488436cf235d0a/playlist.m3u8", "label": ""}], "roadway": "US-301", "county": ""}}, {"type": "Feature", "geometry": {"type": "Point", "coordinates": [-77.213234, 39.14018]}, "properties": {"name": "I-270 & W Diamond Ave (MD 117)(CAM 86)", "kind": "live", "directions": [{"snapshot": null, "video": "https://strmr5.sha.maryland.gov/rtplive/9201113c036b0075004d823633235daa/playlist.m3u8", "label": ""}], "roadway": "IS-270", "county": ""}}, {"type": "Feature", "geometry": {"type": "Point", "coordinates": [-76.519226, 39.332695]}, "properties": {"name": "I-95 NB, N of Chesaco Ave MM 62.0 (C027B)", "kind": "live", "directions": [{"snapshot": null, "video": "https://strmr5.sha.maryland.gov/rtplive/5e0044bd00b400a5004e3336c4235c0a/playlist.m3u8", "label": ""}], "roadway": "IS-95", "county": ""}}, {"type": "Feature", "geometry": {"type": "Point", "coordinates": [-77.0978, 39.006138]}, "properties": {"name": "Rockville Pk (MD 355) & Cedar La (CAM 36)", "kind": "live", "directions": [{"snapshot": null, "video": "https://strmr5.sha.maryland.gov/rtplive/ca014d5302510075004d823633235daa/playlist.m3u8", "label": ""}], "roadway": "MD-355", "county": ""}}, {"type": "Feature", "geometry": {"type": "Point", "coordinates": [-76.04802, 38.55438]}, "properties": {"name": "US 50 AT MD 16", "kind": "live", "directions": [{"snapshot": null, "video": "https://strmr3.sha.maryland.gov/rtplive/38011b2d014900d10058fa36c4235c0a/playlist.m3u8", "label": ""}], "roadway": "US-50", "county": ""}}, {"type": "Feature", "geometry": {"type": "Point", "coordinates": [-75.168526, 38.34673]}, "properties": {"name": "US 50 AT MD 589 RACETRACK RD", "kind": "live", "directions": [{"snapshot": null, "video": "https://strmr3.sha.maryland.gov/rtplive/db00fc6700950030005dd336c4235c0a/playlist.m3u8", "label": ""}], "roadway": "US-50", "county": ""}}, {"type": "Feature", "geometry": {"type": "Point", "coordinates": [-76.00824, 39.046833]}, "properties": {"name": "US 301 AT HOPE RD", "kind": "live", "directions": [{"snapshot": null, "video": "https://strmr3.sha.maryland.gov/rtplive/8800ee33009000070053fa36c4235c0a/playlist.m3u8", "label": ""}], "roadway": "US-301", "county": ""}}, {"type": "Feature", "geometry": {"type": "Point", "coordinates": [-76.91397, 39.074863]}, "properties": {"name": "ICC MD 200 WB W OF I-95 MM 18.1 (C224)", "kind": "live", "directions": [{"snapshot": null, "video": "https://strmr5.sha.maryland.gov/rtplive/c8008761001f00bd004e3336c4235c0a/playlist.m3u8", "label": ""}], "roadway": "MD-200", "county": ""}}, {"type": "Feature", "geometry": {"type": "Point", "coordinates": [-76.78823, 39.30705]}, "properties": {"name": "I-70 E OF PATAPSCO RIVER BR", "kind": "live", "directions": [{"snapshot": null, "video": "https://strmr3.sha.maryland.gov/rtplive/e7015d5b0020005a005fd336c4235c0a/playlist.m3u8", "label": ""}], "roadway": "IS-70", "county": ""}}, {"type": "Feature", "geometry": {"type": "Point", "coordinates": [-76.24922, 38.971066]}, "properties": {"name": "RWIS US 50 AT KENT NARROWS BRG", "kind": "live", "directions": [{"snapshot": null, "video": "https://strmr3.sha.maryland.gov/rtplive/bb008726001e0030006ad336c4235c0a/playlist.m3u8", "label": ""}], "roadway": "US-50", "county": ""}}, {"type": "Feature", "geometry": {"type": "Point", "coordinates": [-76.52007, 38.30365]}, "properties": {"name": "MD 235 AT ST ANDREWS CHURCH RD", "kind": "live", "directions": [{"snapshot": null, "video": "https://strmr3.sha.maryland.gov/rtplive/fdffe2b9008b00070053fa36c4235c0a/playlist.m3u8", "label": ""}], "roadway": "MD-235", "county": ""}}, {"type": "Feature", "geometry": {"type": "Point", "coordinates": [-76.63118, 39.056686]}, "properties": {"name": "I-97 S OF EXIT 7 MD 32", "kind": "live", "directions": [{"snapshot": null, "video": "https://strmr3.sha.maryland.gov/rtplive/3b009d0700e600e30051fa36c4235c0a/playlist.m3u8", "label": ""}], "roadway": "IS-97", "county": ""}}, {"type": "Feature", "geometry": {"type": "Point", "coordinates": [-75.068146, 38.388435]}, "properties": {"name": "MD 528 AT 65TH ST TWR", "kind": "live", "directions": [{"snapshot": null, "video": "https://strmr5.sha.maryland.gov/rtplive/e0002c470097007b00488436cf235d0a/playlist.m3u8", "label": ""}], "roadway": "MD-90", "county": ""}}, {"type": "Feature", "geometry": {"type": "Point", "coordinates": [-76.65037, 39.456966]}, "properties": {"name": "I-83 North past Padonia Rd", "kind": "live", "directions": [{"snapshot": null, "video": "https://strmr5.sha.maryland.gov/rtplive/0a004caa01af00b1005dd336c4235c0a/playlist.m3u8", "label": ""}], "roadway": "IS-83", "county": ""}}, {"type": "Feature", "geometry": {"type": "Point", "coordinates": [-77.36801, 39.665695]}, "properties": {"name": "US 15 AT ST ANTHONY RD", "kind": "live", "directions": [{"snapshot": null, "video": "https://strmr3.sha.maryland.gov/rtplive/61000ccc01a9000b0057fa36c4235c0a/playlist.m3u8", "label": ""}], "roadway": "US-15", "county": ""}}, {"type": "Feature", "geometry": {"type": "Point", "coordinates": [-76.66165, 39.382984]}, "properties": {"name": "I-83 S OF OLD PIMLICO RD", "kind": "live", "directions": [{"snapshot": null, "video": "https://strmr3.sha.maryland.gov/rtplive/63001ed500b100ba004e3436c4235c0a/playlist.m3u8", "label": ""}], "roadway": "IS-83", "county": ""}}, {"type": "Feature", "geometry": {"type": "Point", "coordinates": [-76.32175, 38.97889]}, "properties": {"name": "US 50 WEST AT MD 8", "kind": "live", "directions": [{"snapshot": null, "video": "https://strmr3.sha.maryland.gov/rtplive/afff87a5004900820062d336c4235c0a/playlist.m3u8", "label": ""}], "roadway": "US-50", "county": ""}}, {"type": "Feature", "geometry": {"type": "Point", "coordinates": [-76.635345, 39.444977]}, "properties": {"name": "I-83 N OF EX 16 TIMONIUM RD", "kind": "live", "directions": [{"snapshot": null, "video": "https://strmr5.sha.maryland.gov/rtplive/9400051b01db00e6005cd336c4235c0a/playlist.m3u8", "label": ""}], "roadway": "IS-83", "county": ""}}, {"type": "Feature", "geometry": {"type": "Point", "coordinates": [-76.66796, 39.497402]}, "properties": {"name": "I-83 at Shawan Rd", "kind": "live", "directions": [{"snapshot": null, "video": "https://strmr5.sha.maryland.gov/rtplive/74000dda01980041005dd336c4235c0a/playlist.m3u8", "label": ""}], "roadway": "IS-83", "county": ""}}, {"type": "Feature", "geometry": {"type": "Point", "coordinates": [-75.80155, 39.640556]}, "properties": {"name": "I-95 N of Md 279 Ex 109 (C001) MP 108.4", "kind": "live", "directions": [{"snapshot": null, "video": "https://strmr5.sha.maryland.gov/rtplive/0f019fd7443a0032004606363d235daa/playlist.m3u8", "label": ""}], "roadway": "IS-95", "county": ""}}, {"type": "Feature", "geometry": {"type": "Point", "coordinates": [-76.84349, 38.874897]}, "properties": {"name": "I-95/495 OL PAST RITCHIE MARLBORO RD", "kind": "live", "directions": [{"snapshot": null, "video": "https://strmr5.sha.maryland.gov/rtplive/6501d25801f700d700437a45351f0214/playlist.m3u8", "label": ""}], "roadway": "IS-95", "county": ""}}, {"type": "Feature", "geometry": {"type": "Point", "coordinates": [-76.438065, 39.388836]}, "properties": {"name": "I-95 N Past Cowenton Ave, MM 67.9 (C021B)", "kind": "live", "directions": [{"snapshot": null, "video": "https://strmr5.sha.maryland.gov/rtplive/3401cf1d00fc007b0054fa36c4235c0a/playlist.m3u8", "label": ""}], "roadway": "IS-95", "county": ""}}, {"type": "Feature", "geometry": {"type": "Point", "coordinates": [-76.362816, 38.988728]}, "properties": {"name": "WPL C510 at Gantry S-15 MP 35.0", "kind": "live", "directions": [{"snapshot": null, "video": "https://strmr3.sha.maryland.gov/rtplive/a800e0862df8001700503336c4235c0a/playlist.m3u8", "label": ""}], "roadway": "US-50", "county": ""}}, {"type": "Feature", "geometry": {"type": "Point", "coordinates": [-77.172615, 38.98167]}, "properties": {"name": "I-495 S. of Ex 39 MD 190 River Rd", "kind": "live", "directions": [{"snapshot": null, "video": "https://strmr5.sha.maryland.gov/rtplive/d401425800f700d700437a45351f0214/playlist.m3u8", "label": ""}], "roadway": "IS-495", "county": ""}}, {"type": "Feature", "geometry": {"type": "Point", "coordinates": [-76.7639, 39.184017]}, "properties": {"name": "US 1 AT MD 103", "kind": "live", "directions": [{"snapshot": null, "video": "https://strmr5.sha.maryland.gov/rtplive/e300825d004600030065d336c4235c0a/playlist.m3u8", "label": ""}], "roadway": "US-1", "county": ""}}, {"type": "Feature", "geometry": {"type": "Point", "coordinates": [-76.73654, 39.17358]}, "properties": {"name": "MD 100 West of MD 295", "kind": "live", "directions": [{"snapshot": null, "video": "https://strmr3.sha.maryland.gov/rtplive/df0171e70067006b005fd336c4235c0a/playlist.m3u8", "label": ""}], "roadway": "MD-100", "county": ""}}, {"type": "Feature", "geometry": {"type": "Point", "coordinates": [-76.7109, 39.235092]}, "properties": {"name": "I-95 S OF I-195 (403028)", "kind": "live", "directions": [{"snapshot": null, "video": "https://strmr5.sha.maryland.gov/rtplive/9d010b5800f700d700437a45351f0214/playlist.m3u8", "label": ""}], "roadway": "IS-95", "county": ""}}, {"type": "Feature", "geometry": {"type": "Point", "coordinates": [-76.37181, 38.990803]}, "properties": {"name": "WPL C-510A at Gantry S-13", "kind": "live", "directions": [{"snapshot": null, "video": "https://strmr3.sha.maryland.gov/rtplive/8f006ddf00ff00870067d336c4235c0a/playlist.m3u8", "label": ""}], "roadway": "US-50", "county": ""}}, {"type": "Feature", "geometry": {"type": "Point", "coordinates": [-76.493706, 39.342945]}, "properties": {"name": "I-695 O/L, Prior to I-95, Exit 33 (C025A), MP32.8", "kind": "live", "directions": [{"snapshot": null, "video": "https://strmr5.sha.maryland.gov/rtplive/23011ea3006a0009004c06363d235daa/playlist.m3u8", "label": ""}], "roadway": "IS-695", "county": ""}}, {"type": "Feature", "geometry": {"type": "Point", "coordinates": [-76.93024, 39.05101]}, "properties": {"name": "I-95 AT MD 212", "kind": "live", "directions": [{"snapshot": null, "video": "https://strmr5.sha.maryland.gov/rtplive/f701655800f700d700437a45351f0214/playlist.m3u8", "label": ""}], "roadway": "IS-95", "county": ""}}, {"type": "Feature", "geometry": {"type": "Point", "coordinates": [-77.47652, 39.41592]}, "properties": {"name": "I-70 West of Mt Phillip Rd", "kind": "live", "directions": [{"snapshot": null, "video": "https://strmr3.sha.maryland.gov/rtplive/30001ac501a600d60057fa36c4235c0a/playlist.m3u8", "label": ""}], "roadway": "IS-70", "county": ""}}, {"type": "Feature", "geometry": {"type": "Point", "coordinates": [-76.40449, 39.009583]}, "properties": {"name": "WPL C-501 at Gantry N-1", "kind": "live", "directions": [{"snapshot": null, "video": "https://strmr3.sha.maryland.gov/rtplive/31017318000800e50063d336c4235c0a/playlist.m3u8", "label": ""}], "roadway": "US-50", "county": ""}}, {"type": "Feature", "geometry": {"type": "Point", "coordinates": [-76.25565, 39.48325]}, "properties": {"name": "I-95 S of Md 543 Ex 80 (C017) MP 80.0", "kind": "live", "directions": [{"snapshot": null, "video": "https://strmr5.sha.maryland.gov/rtplive/ef013c29023c0160004806363d235daa/playlist.m3u8", "label": ""}], "roadway": "IS-95", "county": ""}}, {"type": "Feature", "geometry": {"type": "Point", "coordinates": [-76.26972, 39.5075]}, "properties": {"name": "MD 543 AT MD 136", "kind": "live", "directions": [{"snapshot": null, "video": "https://strmr5.sha.maryland.gov/rtplive/40001fe400c000580045e2369e235daa/playlist.m3u8", "label": ""}], "roadway": "MD-543", "county": ""}}, {"type": "Feature", "geometry": {"type": "Point", "coordinates": [-77.23311, 38.520126]}, "properties": {"name": "RWIS MD 344 at MD 224", "kind": "live", "directions": [{"snapshot": null, "video": "https://strmr3.sha.maryland.gov/rtplive/2900b9a9008d00680055fa36c4235c0a/playlist.m3u8", "label": ""}], "roadway": "MD-224", "county": ""}}, {"type": "Feature", "geometry": {"type": "Point", "coordinates": [-76.64365, 39.063766]}, "properties": {"name": "RWIS I-97 AT MD 32", "kind": "live", "directions": [{"snapshot": null, "video": "https://strmr3.sha.maryland.gov/rtplive/dd00bf3a00ea002a0053fa36c4235c0a/playlist.m3u8", "label": ""}], "roadway": "IS-97", "county": ""}}, {"type": "Feature", "geometry": {"type": "Point", "coordinates": [-76.34337, 39.44223]}, "properties": {"name": "I-95 N of MD 152 (C020) MP 74.2", "kind": "live", "directions": [{"snapshot": null, "video": "https://strmr5.sha.maryland.gov/rtplive/0901cb3400e80039004606363d235daa/playlist.m3u8", "label": ""}], "roadway": "IS-95", "county": ""}}, {"type": "Feature", "geometry": {"type": "Point", "coordinates": [-76.33297, 38.7189]}, "properties": {"name": "MD 33 AT KNAPPS NARROWS BRIDGE", "kind": "live", "directions": [{"snapshot": null, "video": "https://strmr3.sha.maryland.gov/rtplive/cf00ee7505b600e20052fa36c4235c0a/playlist.m3u8", "label": ""}], "roadway": "MD-33", "county": ""}}, {"type": "Feature", "geometry": {"type": "Point", "coordinates": [-76.06675, 39.593437]}, "properties": {"name": "I-95 S of Md 222 (C008) MP 93.2", "kind": "live", "directions": [{"snapshot": null, "video": "https://strmr5.sha.maryland.gov/rtplive/df00815800e40039004606363d235daa/playlist.m3u8", "label": ""}], "roadway": "IS-95", "county": ""}}, {"type": "Feature", "geometry": {"type": "Point", "coordinates": [-76.49814, 39.350266]}, "properties": {"name": "I-95N ML @ I-695, MP 63.7(C024C)", "kind": "live", "directions": [{"snapshot": null, "video": "https://strmr5.sha.maryland.gov/rtplive/de00376802d0009e0052fa36c4235c0a/playlist.m3u8", "label": ""}], "roadway": "IS-95", "county": ""}}, {"type": "Feature", "geometry": {"type": "Point", "coordinates": [-76.73388, 39.384308]}, "properties": {"name": "I-695 I/L AT EX 20 MD 140", "kind": "live", "directions": [{"snapshot": null, "video": "https://strmr3.sha.maryland.gov/rtplive/8c0032ca00e100aa004e3436c4235c0a/playlist.m3u8", "label": ""}], "roadway": "IS-695", "county": ""}}, {"type": "Feature", "geometry": {"type": "Point", "coordinates": [-77.03535, 38.792786]}, "properties": {"name": "I-95/495 on W.W. Brg MD", "kind": "live", "directions": [{"snapshot": null, "video": "https://strmr5.sha.maryland.gov/rtplive/e700100700340088004502366d235daa/playlist.m3u8", "label": ""}], "roadway": "IS-95", "county": ""}}, {"type": "Feature", "geometry": {"type": "Point", "coordinates": [-76.472374, 39.27813]}, "properties": {"name": "I-695 AT COVE RD", "kind": "live", "directions": [{"snapshot": null, "video": "https://strmr3.sha.maryland.gov/rtplive/2301638a0027005a005fd336c4235c0a/playlist.m3u8", "label": ""}], "roadway": "MD-695", "county": ""}}, {"type": "Feature", "geometry": {"type": "Point", "coordinates": [-76.67026, 39.59347]}, "properties": {"name": "I-83 N OF EX 27 MD 137, HEREFORD TWR", "kind": "live", "directions": [{"snapshot": null, "video": "https://strmr5.sha.maryland.gov/rtplive/b0001b4e006c00800045833633235daa/playlist.m3u8", "label": ""}], "roadway": "IS-83", "county": ""}}, {"type": "Feature", "geometry": {"type": "Point", "coordinates": [-76.45072, 39.376728]}, "properties": {"name": "I-95 N Prior to Exit 67 MD 43, MM 66.8 (C022C)", "kind": "live", "directions": [{"snapshot": null, "video": "https://strmr5.sha.maryland.gov/rtplive/6401c95400fb007b0054fa36c4235c0a/playlist.m3u8", "label": ""}], "roadway": "IS-95", "county": ""}}, {"type": "Feature", "geometry": {"type": "Point", "coordinates": [-75.56906, 38.33332]}, "properties": {"name": "US 13 AT MD 12", "kind": "live", "directions": [{"snapshot": null, "video": "https://strmr3.sha.maryland.gov/rtplive/7000ead800c20039005dd336c4235c0a/playlist.m3u8", "label": ""}], "roadway": "US-13", "county": ""}}, {"type": "Feature", "geometry": {"type": "Point", "coordinates": [-75.39174, 38.176746]}, "properties": {"name": "US 113 BUS AT MD 12", "kind": "live", "directions": [{"snapshot": null, "video": "https://strmr3.sha.maryland.gov/rtplive/850075ae000600a50061d336c4235c0a/playlist.m3u8", "label": ""}], "roadway": "MD-12", "county": ""}}, {"type": "Feature", "geometry": {"type": "Point", "coordinates": [-75.09835, 38.334236]}, "properties": {"name": "RWIS US 50 AT OC DRAWBRIDGE", "kind": "live", "directions": [{"snapshot": null, "video": "https://strmr3.sha.maryland.gov/rtplive/da00a4ca005e004e006ad336c4235c0a/playlist.m3u8", "label": ""}], "roadway": "US-50", "county": ""}}, {"type": "Feature", "geometry": {"type": "Point", "coordinates": [-76.30727, 39.436573]}, "properties": {"name": "US 40 AT MD 755", "kind": "live", "directions": [{"snapshot": null, "video": "https://strmr5.sha.maryland.gov/rtplive/c300873b00c10058004506363d235daa/playlist.m3u8", "label": ""}], "roadway": "US-40", "county": ""}}, {"type": "Feature", "geometry": {"type": "Point", "coordinates": [-76.579124, 39.242455]}, "properties": {"name": "I-895 N BHT at Gantry 4", "kind": "live", "directions": [{"snapshot": null, "video": "https://strmr5.sha.maryland.gov/rtplive/42015d0a006f00b60060d336c4235c0a/playlist.m3u8", "label": ""}], "roadway": "IS-895", "county": ""}}, {"type": "Feature", "geometry": {"type": "Point", "coordinates": [-76.86534, 38.897903]}, "properties": {"name": "Garrett A. Morgan Blvd at Ridgefield Blvd", "kind": "live", "directions": [{"snapshot": null, "video": "https://strmr10.sha.maryland.gov/rtplive/ef00c25800a7005c0055fa36c4235c0a/playlist.m3u8", "label": ""}], "roadway": "", "county": ""}}, {"type": "Feature", "geometry": {"type": "Point", "coordinates": [-76.084175, 39.563393]}, "properties": {"name": "US 40 S Pier #35 Hatem Br (C064)", "kind": "live", "directions": [{"snapshot": null, "video": "https://strmr5.sha.maryland.gov/rtplive/a50136f124680007004806363d235daa/playlist.m3u8", "label": ""}], "roadway": "US-40", "county": ""}}, {"type": "Feature", "geometry": {"type": "Point", "coordinates": [-76.17158, 39.664913]}, "properties": {"name": "RWIS US 1 AT CONOWINGO", "kind": "live", "directions": [{"snapshot": null, "video": "https://strmr3.sha.maryland.gov/rtplive/d4ffb40500a300ab0050fa36c4235c0a/playlist.m3u8", "label": ""}], "roadway": "US-1", "county": ""}}, {"type": "Feature", "geometry": {"type": "Point", "coordinates": [-76.71955, 39.22272]}, "properties": {"name": "I-895 AT I-95 INTERCHANGE MP 0.3", "kind": "live", "directions": [{"snapshot": null, "video": "https://strmr5.sha.maryland.gov/rtplive/c200dc0dc37401b8004606363d235daa/playlist.m3u8", "label": ""}], "roadway": "IS-895", "county": ""}}, {"type": "Feature", "geometry": {"type": "Point", "coordinates": [-76.81051, 39.14189]}, "properties": {"name": "US 1 North of MD 32", "kind": "live", "directions": [{"snapshot": null, "video": "https://strmr3.sha.maryland.gov/rtplive/2001747300a200dc0065d336c4235c0a/playlist.m3u8", "label": ""}], "roadway": "US-1", "county": ""}}, {"type": "Feature", "geometry": {"type": "Point", "coordinates": [-76.485886, 39.35603]}, "properties": {"name": "I-95 N of Rossville Blvd  (C024) MP 64.4", "kind": "live", "directions": [{"snapshot": null, "video": "https://strmr5.sha.maryland.gov/rtplive/36008da300e40039004606363d235daa/playlist.m3u8", "label": ""}], "roadway": "IS-95", "county": ""}}, {"type": "Feature", "geometry": {"type": "Point", "coordinates": [-77.10358, 39.12645]}, "properties": {"name": "ICC MD 200 WB E OF MUNCASTER, MM 6.5 (C211)", "kind": "live", "directions": [{"snapshot": null, "video": "https://strmr5.sha.maryland.gov/rtplive/800026950585004b004d06363d235daa/playlist.m3u8", "label": ""}], "roadway": "MD-200", "county": ""}}, {"type": "Feature", "geometry": {"type": "Point", "coordinates": [-77.077736, 38.987637]}, "properties": {"name": "Connecticut Ave (MD 185) at East West Hwy (MD 410)", "kind": "live", "directions": [{"snapshot": null, "video": "https://strmr5.sha.maryland.gov/rtplive/0b01b57900060075004d823633235daa/playlist.m3u8", "label": ""}], "roadway": "MD-185", "county": ""}}, {"type": "Feature", "geometry": {"type": "Point", "coordinates": [-79.439224, 39.652786]}, "properties": {"name": "I-68 at Blooming Rose Rd", "kind": "live", "directions": [{"snapshot": null, "video": "https://strmr3.sha.maryland.gov/rtplive/89006627008a00be005ed336c4235c0a/playlist.m3u8", "label": ""}], "roadway": "IS-68", "county": ""}}, {"type": "Feature", "geometry": {"type": "Point", "coordinates": [-76.821526, 39.25518]}, "properties": {"name": "US 29 AT MD 100", "kind": "live", "directions": [{"snapshot": null, "video": "https://strmr3.sha.maryland.gov/rtplive/49015d61002200b4005fd336c4235c0a/playlist.m3u8", "label": ""}], "roadway": "US-29", "county": ""}}, {"type": "Feature", "geometry": {"type": "Point", "coordinates": [-77.12631, 39.063976]}, "properties": {"name": "Rockville Pk (MD 355) & Congressional La (CAM 3)", "kind": "live", "directions": [{"snapshot": null, "video": "https://strmr5.sha.maryland.gov/rtplive/5601494900ee0074004d823633235daa/playlist.m3u8", "label": ""}], "roadway": "MD-355", "county": ""}}, {"type": "Feature", "geometry": {"type": "Point", "coordinates": [-77.13676, 39.138603]}, "properties": {"name": "ICC MD 200 EB, DECKOVER APPROACH, MM 4.4 (C205)", "kind": "live", "directions": [{"snapshot": null, "video": "https://strmr5.sha.maryland.gov/rtplive/550255680555004e004d06363d235daa/playlist.m3u8", "label": ""}], "roadway": "MD-200", "county": ""}}, {"type": "Feature", "geometry": {"type": "Point", "coordinates": [-76.98068, 38.363865]}, "properties": {"name": "US 301 HWN BRIDGE G7", "kind": "live", "directions": [{"snapshot": null, "video": "https://strmr3.sha.maryland.gov/rtplive/d7017729004b00330063d336c4235c0a/playlist.m3u8", "label": ""}], "roadway": "US-301", "county": ""}}, {"type": "Feature", "geometry": {"type": "Point", "coordinates": [-76.28639, 39.554974]}, "properties": {"name": "MD 22 AT SHUCKS RD", "kind": "live", "directions": [{"snapshot": null, "video": "https://strmr5.sha.maryland.gov/rtplive/e8ff1a9100c000580045e2369e235daa/playlist.m3u8", "label": ""}], "roadway": "MD-22", "county": ""}}, {"type": "Feature", "geometry": {"type": "Point", "coordinates": [-76.494606, 39.350952]}, "properties": {"name": "I-95N GP AT I-695, MP 63.9 (C024B)", "kind": "live", "directions": [{"snapshot": null, "video": "https://strmr5.sha.maryland.gov/rtplive/0000309302ce009e0052fa36c4235c0a/playlist.m3u8", "label": ""}], "roadway": "IS-95", "county": ""}}, {"type": "Feature", "geometry": {"type": "Point", "coordinates": [-76.540276, 39.312534]}, "properties": {"name": "I-895 at Moravia Rd (C029) MP14.1", "kind": "live", "directions": [{"snapshot": null, "video": "https://strmr5.sha.maryland.gov/rtplive/7f01597a018d00e300441a366e230214/playlist.m3u8", "label": ""}], "roadway": "IS-895", "county": ""}}, {"type": "Feature", "geometry": {"type": "Point", "coordinates": [-76.54041, 38.696384]}, "properties": {"name": "RWIS MD 260 at Cox Rd", "kind": "live", "directions": [{"snapshot": null, "video": "https://strmr3.sha.maryland.gov/rtplive/dcffb99000fa00c80054fa36c4235c0a/playlist.m3u8", "label": ""}], "roadway": "MD-260", "county": ""}}, {"type": "Feature", "geometry": {"type": "Point", "coordinates": [-78.96225, 39.674232]}, "properties": {"name": "I-68 at Savage Mountain Tower", "kind": "live", "directions": [{"snapshot": null, "video": "https://strmr5.sha.maryland.gov/rtplive/8b00feac006f00c0005cd336c4235c0a/playlist.m3u8", "label": ""}], "roadway": "IS-68", "county": ""}}, {"type": "Feature", "geometry": {"type": "Point", "coordinates": [-77.01261, 38.359997]}, "properties": {"name": "US 301 HWN BRIDGE G16", "kind": "live", "directions": [{"snapshot": null, "video": "https://strmr3.sha.maryland.gov/rtplive/7501a7710078002c0063d336c4235c0a/playlist.m3u8", "label": ""}], "roadway": "US-301", "county": ""}}, {"type": "Feature", "geometry": {"type": "Point", "coordinates": [-77.14553, 39.134834]}, "properties": {"name": "ICC MD 200 EB, REDLAND RD, MM 3.9 (C203)", "kind": "live", "directions": [{"snapshot": null, "video": "https://strmr5.sha.maryland.gov/rtplive/7b011318000d0053004d06363d235daa/playlist.m3u8", "label": ""}], "roadway": "MD-200", "county": ""}}, {"type": "Feature", "geometry": {"type": "Point", "coordinates": [-79.106895, 39.487007]}, "properties": {"name": "RWIS MD 135 AT MEADOW OAKS DR", "kind": "live", "directions": [{"snapshot": null, "video": "https://strmr3.sha.maryland.gov/rtplive/cc00bf4800bb00370056fa36c4235c0a/playlist.m3u8", "label": ""}], "roadway": "MD-135", "county": ""}}, {"type": "Feature", "geometry": {"type": "Point", "coordinates": [-76.43159, 39.39696]}, "properties": {"name": "I-95 S NORTH OF JOPPA RD MM 68.6 (C021A)", "kind": "live", "directions": [{"snapshot": null, "video": "https://strmr5.sha.maryland.gov/rtplive/5601403c00860064004d06363d235daa/playlist.m3u8", "label": ""}], "roadway": "IS-95", "county": ""}}, {"type": "Feature", "geometry": {"type": "Point", "coordinates": [-75.2704, 38.36851]}, "properties": {"name": "US 50 E AT MD 90", "kind": "live", "directions": [{"snapshot": null, "video": "https://strmr3.sha.maryland.gov/rtplive/58004a9f0099007b00488436cf235d0a/playlist.m3u8", "label": ""}], "roadway": "US-50", "county": ""}}, {"type": "Feature", "geometry": {"type": "Point", "coordinates": [-76.82421, 39.157803]}, "properties": {"name": "I-95 NB AT MD 32", "kind": "live", "directions": [{"snapshot": null, "video": "https://strmr5.sha.maryland.gov/rtplive/f201605800f700d700437a45351f0214/playlist.m3u8", "label": ""}], "roadway": "IS-95", "county": ""}}, {"type": "Feature", "geometry": {"type": "Point", "coordinates": [-76.4222, 39.022224]}, "properties": {"name": "C-500.2A US 50 WB, Near Exit 31 Whitehall Rd, Between G-3/G-4,MM 31", "kind": "live", "directions": [{"snapshot": null, "video": "https://strmr5.sha.maryland.gov/rtplive/a20066ba00a300250064d336c4235c0a/playlist.m3u8", "label": ""}], "roadway": "US-50", "county": ""}}, {"type": "Feature", "geometry": {"type": "Point", "coordinates": [-77.92324, 39.651592]}, "properties": {"name": "I-70 at EX 18 MD 68 Clear Spring Rd", "kind": "live", "directions": [{"snapshot": null, "video": "https://strmr3.sha.maryland.gov/rtplive/6e00fd5800ad00b9005dd336c4235c0a/playlist.m3u8", "label": ""}], "roadway": "IS-70", "county": ""}}, {"type": "Feature", "geometry": {"type": "Point", "coordinates": [-77.05379, 39.107445]}, "properties": {"name": "ICC MD 200 WB LONGMEAD CROSSING DR MM 9.6 (C214)", "kind": "live", "directions": [{"snapshot": null, "video": "https://strmr5.sha.maryland.gov/rtplive/75003cc500a600ca004e3336c4235c0a/playlist.m3u8", "label": ""}], "roadway": "MD-200", "county": ""}}, {"type": "Feature", "geometry": {"type": "Point", "coordinates": [-79.251785, 39.692944]}, "properties": {"name": "I-68 at US 219 Keysers Ridge Tower", "kind": "live", "directions": [{"snapshot": null, "video": "https://strmr5.sha.maryland.gov/rtplive/0e0109d100f1003d00471536ea235d0a/playlist.m3u8", "label": ""}], "roadway": "IS-68", "county": ""}}, {"type": "Feature", "geometry": {"type": "Point", "coordinates": [-77.00511, 39.01509]}, "properties": {"name": "I-495 & University Blvd (MD 193)", "kind": "live", "directions": [{"snapshot": null, "video": "https://strmr5.sha.maryland.gov/rtplive/e4ff858700010075004d823633235daa/playlist.m3u8", "label": ""}], "roadway": "IS-495", "county": ""}}, {"type": "Feature", "geometry": {"type": "Point", "coordinates": [-77.01547, 38.35925]}, "properties": {"name": "US 301 HWN BRIDGE G17", "kind": "live", "directions": [{"snapshot": null, "video": "https://strmr3.sha.maryland.gov/rtplive/d001781c006000230063d336c4235c0a/playlist.m3u8", "label": ""}], "roadway": "US-301", "county": ""}}, {"type": "Feature", "geometry": {"type": "Point", "coordinates": [-77.052315, 39.04136]}, "properties": {"name": "Georgia Ave (MD 97) at University Blvd (MD 193)(CAM 55)", "kind": "live", "directions": [{"snapshot": null, "video": "https://strmr5.sha.maryland.gov/rtplive/e000990f025f0075004d823633235daa/playlist.m3u8", "label": ""}], "roadway": "MD-193", "county": ""}}, {"type": "Feature", "geometry": {"type": "Point", "coordinates": [-76.649956, 39.231964]}, "properties": {"name": "I-895 AT MD 295 (C046) MM 4.5", "kind": "live", "directions": [{"snapshot": null, "video": "https://strmr5.sha.maryland.gov/rtplive/7d000a98c47501b8004606363d235daa/playlist.m3u8", "label": ""}], "roadway": "IS-895", "county": ""}}, {"type": "Feature", "geometry": {"type": "Point", "coordinates": [-79.09214, 39.68832]}, "properties": {"name": "I-68 at Exit 22 US 219 (Grantsville Tower)", "kind": "live", "directions": [{"snapshot": null, "video": "https://strmr5.sha.maryland.gov/rtplive/be0017de00e800dd00451536ea235d0a/playlist.m3u8", "label": ""}], "roadway": "IS-68", "county": ""}}, {"type": "Feature", "geometry": {"type": "Point", "coordinates": [-77.60347, 39.526527]}, "properties": {"name": "I-70 East at South Mountain", "kind": "live", "directions": [{"snapshot": null, "video": "https://strmr3.sha.maryland.gov/rtplive/0200f4dc00c300a00052fa36c4235c0a/playlist.m3u8", "label": ""}], "roadway": "IS-70", "county": ""}}, {"type": "Feature", "geometry": {"type": "Point", "coordinates": [-77.01063, 38.782288]}, "properties": {"name": "National Harbor at American Way", "kind": "live", "directions": [{"snapshot": null, "video": "https://strmr10.sha.maryland.gov/rtplive/a70010ea00ea00af004502366d235daa/playlist.m3u8", "label": ""}], "roadway": "", "county": ""}}, {"type": "Feature", "geometry": {"type": "Point", "coordinates": [-75.999535, 38.927876]}, "properties": {"name": "MD 404 WEST OF CONNELLY ROAD", "kind": "live", "directions": [{"snapshot": null, "video": "https://strmr3.sha.maryland.gov/rtplive/8800f815000a00bf005cd336c4235c0a/playlist.m3u8", "label": ""}], "roadway": "MD-404", "county": ""}}, {"type": "Feature", "geometry": {"type": "Point", "coordinates": [-76.58967, 39.264416]}, "properties": {"name": "I-95 at FMT, Top of South Portal (C040) MM 54.5", "kind": "live", "directions": [{"snapshot": null, "video": "https://strmr5.sha.maryland.gov/rtplive/a9008078019200e300441a366e230214/playlist.m3u8", "label": ""}], "roadway": "IS-95", "county": ""}}, {"type": "Feature", "geometry": {"type": "Point", "coordinates": [-76.40954, 39.01777]}, "properties": {"name": "US 50 EAST AT SANDY POINT", "kind": "live", "directions": [{"snapshot": null, "video": "https://strmr3.sha.maryland.gov/rtplive/490171da00d7006f0062d336c4235c0a/playlist.m3u8", "label": ""}], "roadway": "US-50", "county": ""}}, {"type": "Feature", "geometry": {"type": "Point", "coordinates": [-76.9433, 39.033737]}, "properties": {"name": "I-95 AT CHERRY HILL RD", "kind": "live", "directions": [{"snapshot": null, "video": "https://strmr5.sha.maryland.gov/rtplive/3101095601e90035005dd336c4235c0a/playlist.m3u8", "label": ""}], "roadway": "IS-95", "county": ""}}, {"type": "Feature", "geometry": {"type": "Point", "coordinates": [-76.01492, 39.608932]}, "properties": {"name": "I-95 S of Chesapeake H. (C006) MP 96.1", "kind": "live", "directions": [{"snapshot": null, "video": "https://strmr5.sha.maryland.gov/rtplive/c201714c00e30039004606363d235daa/playlist.m3u8", "label": ""}], "roadway": "IS-95", "county": ""}}, {"type": "Feature", "geometry": {"type": "Point", "coordinates": [-76.411255, 39.63708]}, "properties": {"name": "RWIS MD 24 AT ROCKS ST. PARK", "kind": "live", "directions": [{"snapshot": null, "video": "https://strmr3.sha.maryland.gov/rtplive/2e00ac6800a200ab0050fa36c4235c0a/playlist.m3u8", "label": ""}], "roadway": "MD-24", "county": ""}}, {"type": "Feature", "geometry": {"type": "Point", "coordinates": [-76.85159, 38.91714]}, "properties": {"name": "I-95/495 AT MD 202", "kind": "live", "directions": [{"snapshot": null, "video": "https://strmr5.sha.maryland.gov/rtplive/5101be5801f700d700437a45351f0214/playlist.m3u8", "label": ""}], "roadway": "IS-95", "county": ""}}, {"type": "Feature", "geometry": {"type": "Point", "coordinates": [-78.18272, 39.70911]}, "properties": {"name": "I-70 at I-68", "kind": "live", "directions": [{"snapshot": null, "video": "https://strmr3.sha.maryland.gov/rtplive/950008fc01cf000f005cd336c4235c0a/playlist.m3u8", "label": ""}], "roadway": "IS-70", "county": ""}}, {"type": "Feature", "geometry": {"type": "Point", "coordinates": [-76.53347, 39.286137]}, "properties": {"name": "I-95 S of Eastern Ave (C042) MP 58.5", "kind": "live", "directions": [{"snapshot": null, "video": "https://strmr5.sha.maryland.gov/rtplive/e1000d84021a004b004606363d235daa/playlist.m3u8", "label": ""}], "roadway": "IS-95", "county": ""}}, {"type": "Feature", "geometry": {"type": "Point", "coordinates": [-76.76658, 39.19715]}, "properties": {"name": "I-95 SOUTH AT MD 100", "kind": "live", "directions": [{"snapshot": null, "video": "https://strmr3.sha.maryland.gov/rtplive/5c010a65017a00c0005cd336c4235c0a/playlist.m3u8", "label": ""}], "roadway": "IS-95", "county": ""}}, {"type": "Feature", "geometry": {"type": "Point", "coordinates": [-75.42151, 38.385033]}, "properties": {"name": "US 50 AT SIXTY FOOT RD", "kind": "live", "directions": [{"snapshot": null, "video": "https://strmr3.sha.maryland.gov/rtplive/94ffeaa500b6009c005dd336c4235c0a/playlist.m3u8", "label": ""}], "roadway": "US-50", "county": ""}}, {"type": "Feature", "geometry": {"type": "Point", "coordinates": [-76.66426, 38.51074]}, "properties": {"name": "RWIS MD 231 at PATUXENT RIVER", "kind": "live", "directions": [{"snapshot": null, "video": "https://strmr3.sha.maryland.gov/rtplive/2c01b630005100240054fa36c4235c0a/playlist.m3u8", "label": ""}], "roadway": "MD-231", "county": ""}}, {"type": "Feature", "geometry": {"type": "Point", "coordinates": [-77.7853, 39.61655]}, "properties": {"name": "I-70 at Ex 26 I-81", "kind": "live", "directions": [{"snapshot": null, "video": "https://strmr3.sha.maryland.gov/rtplive/1b01e0330015001c005afa36c4235c0a/playlist.m3u8", "label": ""}], "roadway": "IS-70", "county": ""}}, {"type": "Feature", "geometry": {"type": "Point", "coordinates": [-77.09733, 38.999233]}, "properties": {"name": "Rockville Pk (MD 355) & South Dr (CAM 35)", "kind": "live", "directions": [{"snapshot": null, "video": "https://strmr5.sha.maryland.gov/rtplive/f400498202500075004d823633235daa/playlist.m3u8", "label": ""}], "roadway": "MD-355", "county": ""}}, {"type": "Feature", "geometry": {"type": "Point", "coordinates": [-76.32229, 38.97948]}, "properties": {"name": "WPL C-517 at Gantry N-29", "kind": "live", "directions": [{"snapshot": null, "video": "https://strmr3.sha.maryland.gov/rtplive/9e006694005800930063d336c4235c0a/playlist.m3u8", "label": ""}], "roadway": "US-50", "county": ""}}, {"type": "Feature", "geometry": {"type": "Point", "coordinates": [-76.35065, 38.985863]}, "properties": {"name": "WPL C512 at Gantry S-19 MP 35.7", "kind": "live", "directions": [{"snapshot": null, "video": "https://strmr3.sha.maryland.gov/rtplive/6400d5b92e86001c00503336c4235c0a/playlist.m3u8", "label": ""}], "roadway": "US-50", "county": ""}}, {"type": "Feature", "geometry": {"type": "Point", "coordinates": [-75.99986, 39.616207]}, "properties": {"name": "I-95 N of Chesapeake H. (C005) MP 97.1", "kind": "live", "directions": [{"snapshot": null, "video": "https://strmr5.sha.maryland.gov/rtplive/480169db00e20039004606363d235daa/playlist.m3u8", "label": ""}], "roadway": "IS-95", "county": ""}}, {"type": "Feature", "geometry": {"type": "Point", "coordinates": [-76.55353, 39.280655]}, "properties": {"name": "I-895 S of O'Donnell St (C035) MP 11.8", "kind": "live", "directions": [{"snapshot": null, "video": "https://strmr5.sha.maryland.gov/rtplive/b8007791019100e300441a366e230214/playlist.m3u8", "label": ""}], "roadway": "IS-895", "county": ""}}, {"type": "Feature", "geometry": {"type": "Point", "coordinates": [-77.031815, 39.096058]}, "properties": {"name": "ICC MD 200 WB E OF 182 LAYHILL RD MM 11.1 (C216)", "kind": "live", "directions": [{"snapshot": null, "video": "https://strmr5.sha.maryland.gov/rtplive/f2009c74002100bd004e3336c4235c0a/playlist.m3u8", "label": ""}], "roadway": "MD-200", "county": ""}}, {"type": "Feature", "geometry": {"type": "Point", "coordinates": [-76.870605, 38.6974]}, "properties": {"name": "RWIS US-301 AT MD-5", "kind": "live", "directions": [{"snapshot": null, "video": "https://strmr3.sha.maryland.gov/rtplive/ce00c32600eb002a0053fa36c4235c0a/playlist.m3u8", "label": ""}], "roadway": "US-301", "county": ""}}, {"type": "Feature", "geometry": {"type": "Point", "coordinates": [-76.88932, 38.9955]}, "properties": {"name": "I-95/495 AT MD 193 Greenbelt Rd", "kind": "live", "directions": [{"snapshot": null, "video": "https://strmr3.sha.maryland.gov/rtplive/63016dde026300e50051fa36c4235c0a/playlist.m3u8", "label": ""}], "roadway": "IS-95", "county": ""}}, {"type": "Feature", "geometry": {"type": "Point", "coordinates": [-76.8736, 38.978535]}, "properties": {"name": "I-95/495 AT GOOD LUCK ROAD", "kind": "live", "directions": [{"snapshot": null, "video": "https://strmr5.sha.maryland.gov/rtplive/260016bb004200f0004ae33696235daa/playlist.m3u8", "label": ""}], "roadway": "IS-95", "county": ""}}, {"type": "Feature", "geometry": {"type": "Point", "coordinates": [-76.58356, 39.24094]}, "properties": {"name": "I-895 N of Childs St (C037) MM 8.4", "kind": "live", "directions": [{"snapshot": null, "video": "https://strmr5.sha.maryland.gov/rtplive/eb0165ea044c0160004806363d235daa/playlist.m3u8", "label": ""}], "roadway": "IS-895", "county": ""}}, {"type": "Feature", "geometry": {"type": "Point", "coordinates": [-76.87921, 38.99526]}, "properties": {"name": "MD 295 AT MD 193 Greenbelt Rd", "kind": "live", "directions": [{"snapshot": null, "video": "https://strmr3.sha.maryland.gov/rtplive/aa01d4760070001b0058fa36c4235c0a/playlist.m3u8", "label": ""}], "roadway": "MD-295", "county": ""}}, {"type": "Feature", "geometry": {"type": "Point", "coordinates": [-76.44355, 39.38493]}, "properties": {"name": "I-95 N of Md 43 Whitemarsh Blvd (C022) MP 67.5", "kind": "live", "directions": [{"snapshot": null, "video": "https://strmr5.sha.maryland.gov/rtplive/f101757700e30039004606363d235daa/playlist.m3u8", "label": ""}], "roadway": "IS-95", "county": ""}}, {"type": "Feature", "geometry": {"type": "Point", "coordinates": [-76.99657, 38.805]}, "properties": {"name": "I-95/495 N of MD 210", "kind": "live", "directions": [{"snapshot": null, "video": "https://strmr5.sha.maryland.gov/rtplive/c0000328018c0055005dd336c4235c0a/playlist.m3u8", "label": ""}], "roadway": "IS-95", "county": ""}}, {"type": "Feature", "geometry": {"type": "Point", "coordinates": [-76.67316, 39.261997]}, "properties": {"name": "I-95 N. OF I-695 SW", "kind": "live", "directions": [{"snapshot": null, "video": "https://strmr5.sha.maryland.gov/rtplive/1a01fd6300950072005dd336c4235c0a/playlist.m3u8", "label": ""}], "roadway": "IS-95", "county": ""}}, {"type": "Feature", "geometry": {"type": "Point", "coordinates": [-76.74526, 39.34867]}, "properties": {"name": "I-695 AT LIBERTY RD", "kind": "live", "directions": [{"snapshot": null, "video": "https://strmr5.sha.maryland.gov/rtplive/3d01ab5800f700d700437a45351f0214/playlist.m3u8", "label": ""}], "roadway": "IS-695", "county": ""}}, {"type": "Feature", "geometry": {"type": "Point", "coordinates": [-76.16857, 38.981365]}, "properties": {"name": "US 50 AT US 301 SPLIT", "kind": "live", "directions": [{"snapshot": null, "video": "https://strmr3.sha.maryland.gov/rtplive/cb000f1800330014004a8436cf235d0a/playlist.m3u8", "label": ""}], "roadway": "US-50", "county": ""}}, {"type": "Feature", "geometry": {"type": "Point", "coordinates": [-79.24838, 39.692093]}, "properties": {"name": "RWIS I-68 at US 219", "kind": "live", "directions": [{"snapshot": null, "video": "https://strmr3.sha.maryland.gov/rtplive/1800a05f00a100ab0050fa36c4235c0a/playlist.m3u8", "label": ""}], "roadway": "US-219", "county": ""}}, {"type": "Feature", "geometry": {"type": "Point", "coordinates": [-76.36658, 38.989586]}, "properties": {"name": "WPL at Gantry 14", "kind": "live", "directions": [{"snapshot": null, "video": "https://strmr5.sha.maryland.gov/rtplive/600087a4006500120068d336c4235c0a/playlist.m3u8", "label": ""}], "roadway": "US-50", "county": ""}}, {"type": "Feature", "geometry": {"type": "Point", "coordinates": [-76.847595, 38.892426]}, "properties": {"name": "I-95/495 AT MD 214", "kind": "live", "directions": [{"snapshot": null, "video": "https://strmr5.sha.maryland.gov/rtplive/4701b45801f700d700437a45351f0214/playlist.m3u8", "label": ""}], "roadway": "IS-95", "county": ""}}, {"type": "Feature", "geometry": {"type": "Point", "coordinates": [-76.673584, 39.59246]}, "properties": {"name": "RWIS I-83 AT MD-137", "kind": "live", "directions": [{"snapshot": null, "video": "https://strmr3.sha.maryland.gov/rtplive/f500c12a006900d40050fa36c4235c0a/playlist.m3u8", "label": ""}], "roadway": "IS-83", "county": ""}}, {"type": "Feature", "geometry": {"type": "Point", "coordinates": [-76.140366, 39.567726]}, "properties": {"name": "I-95 S of Md 155  (C013) MP 88.6", "kind": "live", "directions": [{"snapshot": null, "video": "https://strmr5.sha.maryland.gov/rtplive/6a0091d300e40039004606363d235daa/playlist.m3u8", "label": ""}], "roadway": "IS-95", "county": ""}}, {"type": "Feature", "geometry": {"type": "Point", "coordinates": [-76.97725, 38.364395]}, "properties": {"name": "US 301 HWN BRIDGE G6", "kind": "live", "directions": [{"snapshot": null, "video": "https://strmr3.sha.maryland.gov/rtplive/99016c19003c001f0063d336c4235c0a/playlist.m3u8", "label": ""}], "roadway": "US-301", "county": ""}}, {"type": "Feature", "geometry": {"type": "Point", "coordinates": [-76.862526, 39.129265]}, "properties": {"name": "I-95 AT MD 216", "kind": "live", "directions": [{"snapshot": null, "video": "https://strmr5.sha.maryland.gov/rtplive/1a0142cf013f0016005dd336c4235c0a/playlist.m3u8", "label": ""}], "roadway": "IS-95", "county": ""}}, {"type": "Feature", "geometry": {"type": "Point", "coordinates": [-76.07505, 39.56756]}, "properties": {"name": "US 40 AT HATEM BRIDGE (C-065A)", "kind": "live", "directions": [{"snapshot": null, "video": "https://strmr5.sha.maryland.gov/rtplive/80007d9800c000f30062d336c4235c0a/playlist.m3u8", "label": ""}], "roadway": "US-40", "county": ""}}, {"type": "Feature", "geometry": {"type": "Point", "coordinates": [-76.40881, 39.01575]}, "properties": {"name": "C-500.3B US 50 EB, East of Exit 32 , Oceanic Drive, Near Gate ER1, MM 32", "kind": "live", "directions": [{"snapshot": null, "video": "https://strmr5.sha.maryland.gov/rtplive/f50078f800a600250064d336c4235c0a/playlist.m3u8", "label": ""}], "roadway": "US-50", "county": ""}}, {"type": "Feature", "geometry": {"type": "Point", "coordinates": [-77.06574, 39.116802]}, "properties": {"name": "ICC MD 200 EB E OF MD 97 MM 8.7 (C213)", "kind": "live", "directions": [{"snapshot": null, "video": "https://strmr5.sha.maryland.gov/rtplive/d2005d9a001a00bd004e3336c4235c0a/playlist.m3u8", "label": ""}], "roadway": "MD-200", "county": ""}}, {"type": "Feature", "geometry": {"type": "Point", "coordinates": [-76.88963, 39.10004]}, "properties": {"name": "I-95 AT MD 198", "kind": "live", "directions": [{"snapshot": null, "video": "https://strmr5.sha.maryland.gov/rtplive/63ff12a0008d00030048e33696235daa/playlist.m3u8", "label": ""}], "roadway": "IS-95", "county": ""}}, {"type": "Feature", "geometry": {"type": "Point", "coordinates": [-76.632706, 39.18148]}, "properties": {"name": "I-97 N OF EXIT 16 MD 648", "kind": "live", "directions": [{"snapshot": null, "video": "https://strmr5.sha.maryland.gov/rtplive/0900adbd00ee00e30051fa36c4235c0a/playlist.m3u8", "label": ""}], "roadway": "IS-97", "county": ""}}, {"type": "Feature", "geometry": {"type": "Point", "coordinates": [-76.39515, 38.998123]}, "properties": {"name": "WPL C-505 at Gantry N-9 MP 2.0", "kind": "live", "directions": [{"snapshot": null, "video": "https://strmr3.sha.maryland.gov/rtplive/5a01ab71004500400063d336c4235c0a/playlist.m3u8", "label": ""}], "roadway": "US-50", "county": ""}}, {"type": "Feature", "geometry": {"type": "Point", "coordinates": [-76.698425, 39.258034]}, "properties": {"name": "I-695 AT WILKENS AVE", "kind": "live", "directions": [{"snapshot": null, "video": "https://strmr5.sha.maryland.gov/rtplive/c501325801f700d700437a45351f0214/playlist.m3u8", "label": ""}], "roadway": "IS-695", "county": ""}}, {"type": "Feature", "geometry": {"type": "Point", "coordinates": [-77.080345, 39.109024]}, "properties": {"name": "Muncaster Mill Rd (MD 115) & Norbeck Rd (MD 28)(CAM 141)", "kind": "live", "directions": [{"snapshot": null, "video": "https://strmr5.sha.maryland.gov/rtplive/8401296e01150075004d823633235daa/playlist.m3u8", "label": ""}], "roadway": "MD-115", "county": ""}}, {"type": "Feature", "geometry": {"type": "Point", "coordinates": [-76.884445, 39.16754]}, "properties": {"name": "US 29 AT MIDDLE PATUXENT RIVER", "kind": "live", "directions": [{"snapshot": null, "video": "https://strmr3.sha.maryland.gov/rtplive/ca006bbb003d00aa0067d336c4235c0a/playlist.m3u8", "label": ""}], "roadway": "US-29", "county": ""}}, {"type": "Feature", "geometry": {"type": "Point", "coordinates": [-77.427704, 39.399185]}, "properties": {"name": "I-70 at Ex 53 I-270", "kind": "live", "directions": [{"snapshot": null, "video": "https://strmr5.sha.maryland.gov/rtplive/0800f82400b50086005bd336c4235c0a/playlist.m3u8", "label": ""}], "roadway": "IS-70", "county": ""}}, {"type": "Feature", "geometry": {"type": "Point", "coordinates": [-76.1813, 39.655174]}, "properties": {"name": "US 1 AT CONOWINGO TWR", "kind": "live", "directions": [{"snapshot": null, "video": "https://strmr5.sha.maryland.gov/rtplive/2201f01800f8006f005dd336c4235c0a/playlist.m3u8", "label": ""}], "roadway": "US-1", "county": ""}}, {"type": "Feature", "geometry": {"type": "Point", "coordinates": [-78.49391, 39.682415]}, "properties": {"name": "I-68 West of 15 Mile Creek Rd", "kind": "live", "directions": [{"snapshot": null, "video": "https://strmr3.sha.maryland.gov/rtplive/960017d3013c00bc005dd336c4235c0a/playlist.m3u8", "label": ""}], "roadway": "IS-68", "county": ""}}, {"type": "Feature", "geometry": {"type": "Point", "coordinates": [-77.0059, 39.088337]}, "properties": {"name": "ICC MD 200 WB  W OF MD 650 NEW HAMPSHIRE AVE MM 12.9 (C218)", "kind": "live", "directions": [{"snapshot": null, "video": "https://strmr5.sha.maryland.gov/rtplive/2e00aaa1002200bd004e3336c4235c0a/playlist.m3u8", "label": ""}], "roadway": "MD-200", "county": ""}}, {"type": "Feature", "geometry": {"type": "Point", "coordinates": [-76.06257, 39.59521]}, "properties": {"name": "I-95 N of Md 222 (C007) MP 93.4", "kind": "live", "directions": [{"snapshot": null, "video": "https://strmr5.sha.maryland.gov/rtplive/400179c200e30039004606363d235daa/playlist.m3u8", "label": ""}], "roadway": "IS-95", "county": ""}}, {"type": "Feature", "geometry": {"type": "Point", "coordinates": [-78.71543, 39.67372]}, "properties": {"name": "I-68 at Exit 47 US 220", "kind": "live", "directions": [{"snapshot": null, "video": "https://strmr3.sha.maryland.gov/rtplive/44013f49015800b0005dd336c4235c0a/playlist.m3u8", "label": ""}], "roadway": "IS-68", "county": ""}}, {"type": "Feature", "geometry": {"type": "Point", "coordinates": [-76.515625, 38.993816]}, "properties": {"name": "US 50 AT Ex 24 MD 70 Rowe Blvd", "kind": "live", "directions": [{"snapshot": null, "video": "https://strmr5.sha.maryland.gov/rtplive/fa0017fb008d004b004af03676235daa/playlist.m3u8", "label": ""}], "roadway": "US-50", "county": ""}}, {"type": "Feature", "geometry": {"type": "Point", "coordinates": [-76.77855, 39.174744]}, "properties": {"name": "US 1 AT PORT CAPITOL DR", "kind": "live", "directions": [{"snapshot": null, "video": "https://strmr5.sha.maryland.gov/rtplive/4b017ada003900030065d336c4235c0a/playlist.m3u8", "label": ""}], "roadway": "US-1", "county": ""}}, {"type": "Feature", "geometry": {"type": "Point", "coordinates": [-75.11164, 38.338017]}, "properties": {"name": "US 50 AT MD 611", "kind": "live", "directions": [{"snapshot": null, "video": "https://strmr5.sha.maryland.gov/rtplive/a6004fe80099007b00488436cf235d0a/playlist.m3u8", "label": ""}], "roadway": "US-50", "county": ""}}, {"type": "Feature", "geometry": {"type": "Point", "coordinates": [-76.3503, 39.442177]}, "properties": {"name": "I-95 S PAST EXIT 74 MD 152 (C021) MM 74.1", "kind": "live", "directions": [{"snapshot": null, "video": "https://strmr5.sha.maryland.gov/rtplive/4c01cf7300e80039004606363d235daa/playlist.m3u8", "label": ""}], "roadway": "IS-95", "county": ""}}, {"type": "Feature", "geometry": {"type": "Point", "coordinates": [-76.85286, 39.032658]}, "properties": {"name": "MD 295 AT POWDER MILL RD", "kind": "live", "directions": [{"snapshot": null, "video": "https://strmr3.sha.maryland.gov/rtplive/d6001e05013b00c4005dd336c4235c0a/playlist.m3u8", "label": ""}], "roadway": "MD-295", "county": ""}}, {"type": "Feature", "geometry": {"type": "Point", "coordinates": [-76.96134, 38.369648]}, "properties": {"name": "US 301 HWN BRIDGE M.M. 3.03", "kind": "live", "directions": [{"snapshot": null, "video": "https://strmr3.sha.maryland.gov/rtplive/c8008309005000330063d336c4235c0a/playlist.m3u8", "label": ""}], "roadway": "US-301", "county": ""}}, {"type": "Feature", "geometry": {"type": "Point", "coordinates": [-76.969536, 39.083138]}, "properties": {"name": "ICC MD 200 EB W OF US 29 MM 14.9 (C220)", "kind": "live", "directions": [{"snapshot": null, "video": "https://strmr5.sha.maryland.gov/rtplive/7d01722d001d00bd004e3336c4235c0a/playlist.m3u8", "label": ""}], "roadway": "MD-200", "county": ""}}, {"type": "Feature", "geometry": {"type": "Point", "coordinates": [-76.44128, 39.377453]}, "properties": {"name": "MD 43 E, East of I-95 (C022B) MM 67.0", "kind": "live", "directions": [{"snapshot": null, "video": "https://strmr5.sha.maryland.gov/rtplive/6e01c36600f9007b0054fa36c4235c0a/playlist.m3u8", "label": ""}], "roadway": "IS-95", "county": ""}}, {"type": "Feature", "geometry": {"type": "Point", "coordinates": [-77.017, 39.01564]}, "properties": {"name": "I-495 at Ex 30 US 29 Colesville Rd", "kind": "live", "directions": [{"snapshot": null, "video": "https://strmr3.sha.maryland.gov/rtplive/470011e600ef003a004ee33696235daa/playlist.m3u8", "label": ""}], "roadway": "IS-495", "county": ""}}, {"type": "Feature", "geometry": {"type": "Point", "coordinates": [-78.303246, 39.71222]}, "properties": {"name": "I-68 at Exit 74 Mountain Rd", "kind": "live", "directions": [{"snapshot": null, "video": "https://strmr3.sha.maryland.gov/rtplive/b1ff05ba019e00a0005dd336c4235c0a/playlist.m3u8", "label": ""}], "roadway": "IS-68", "county": ""}}, {"type": "Feature", "geometry": {"type": "Point", "coordinates": [-76.98648, 39.046844]}, "properties": {"name": "Columbia Pk (US 29) at Stewart La", "kind": "live", "directions": [{"snapshot": null, "video": "https://strmr3.sha.maryland.gov/rtplive/1102717002570075004d823633235daa/playlist.m3u8", "label": ""}], "roadway": "US-29", "county": ""}}, {"type": "Feature", "geometry": {"type": "Point", "coordinates": [-78.016396, 39.62804]}, "properties": {"name": "I-70 AT EX 12 MD 56", "kind": "live", "directions": [{"snapshot": null, "video": "https://strmr3.sha.maryland.gov/rtplive/e900ea2a006a00b8005dd336c4235c0a/playlist.m3u8", "label": ""}], "roadway": "IS-70", "county": ""}}, {"type": "Feature", "geometry": {"type": "Point", "coordinates": [-77.14185, 39.033573]}, "properties": {"name": "I-270 S OF SPLIT", "kind": "live", "directions": [{"snapshot": null, "video": "https://strmr5.sha.maryland.gov/rtplive/1501835800f700d700437a45351f0214/playlist.m3u8", "label": ""}], "roadway": "IS-270", "county": ""}}, {"type": "Feature", "geometry": {"type": "Point", "coordinates": [-76.08817, 39.585545]}, "properties": {"name": "I-95 N OF TYDINGS BRIDGE (C094) 91.8N", "kind": "live", "directions": [{"snapshot": null, "video": "https://strmr3.sha.maryland.gov/rtplive/0b016b9800e6006a0062d336c4235c0a/playlist.m3u8", "label": ""}], "roadway": "IS-95", "county": ""}}, {"type": "Feature", "geometry": {"type": "Point", "coordinates": [-76.73768, 39.285336]}, "properties": {"name": "I-695 AT BALT NATL PK", "kind": "live", "directions": [{"snapshot": null, "video": "https://strmr5.sha.maryland.gov/rtplive/1701ea3700f9004a005dd336c4235c0a/playlist.m3u8", "label": ""}], "roadway": "IS-695", "county": ""}}, {"type": "Feature", "geometry": {"type": "Point", "coordinates": [-76.53036, 39.305187]}, "properties": {"name": "I-95 N AT MORAVIA RD C-042C", "kind": "live", "directions": [{"snapshot": null, "video": "https://strmr3.sha.maryland.gov/rtplive/320177fe009d006b005fd336c4235c0a/playlist.m3u8", "label": ""}], "roadway": "IS-95", "county": ""}}, {"type": "Feature", "geometry": {"type": "Point", "coordinates": [-77.105965, 39.031452]}, "properties": {"name": "Rockville Pk (MD 355) & Tuckerman La (North) (CAM 37)", "kind": "live", "directions": [{"snapshot": null, "video": "https://strmr5.sha.maryland.gov/rtplive/1701519c02510075004d823633235daa/playlist.m3u8", "label": ""}], "roadway": "MD-355", "county": ""}}, {"type": "Feature", "geometry": {"type": "Point", "coordinates": [-76.899445, 39.067554]}, "properties": {"name": "ICC MD 200 EB E OF I-95 MM 19.1 (C226)", "kind": "live", "directions": [{"snapshot": null, "video": "https://strmr3.sha.maryland.gov/rtplive/86008e17002000bd004e3336c4235c0a/playlist.m3u8", "label": ""}], "roadway": "MD-200", "county": ""}}, {"type": "Feature", "geometry": {"type": "Point", "coordinates": [-77.17777, 38.978092]}, "properties": {"name": "I-495 N. of American Legion Brg", "kind": "live", "directions": [{"snapshot": null, "video": "https://strmr5.sha.maryland.gov/rtplive/680130ec01500048005dd336c4235c0a/playlist.m3u8", "label": ""}], "roadway": "IS-495", "county": ""}}, {"type": "Feature", "geometry": {"type": "Point", "coordinates": [-76.86517, 38.954945]}, "properties": {"name": "I-95 SOUTH OF MD 450 (Cobb Road Tower)", "kind": "live", "directions": [{"snapshot": null, "video": "https://strmr3.sha.maryland.gov/rtplive/7501657e00cd00070068d336c4235c0a/playlist.m3u8", "label": ""}], "roadway": "IS-95", "county": ""}}, {"type": "Feature", "geometry": {"type": "Point", "coordinates": [-76.49429, 39.353382]}, "properties": {"name": "I-95S GP @ I-695, MP 64.0 (C024A)", "kind": "live", "directions": [{"snapshot": null, "video": "https://strmr5.sha.maryland.gov/rtplive/65002ee001eb009c0052fa36c4235c0a/playlist.m3u8", "label": ""}], "roadway": "IS-95", "county": ""}}, {"type": "Feature", "geometry": {"type": "Point", "coordinates": [-77.030464, 39.094364]}, "properties": {"name": "ICC MD 200 EB AT BONIFANT MM 11.8 (C217)", "kind": "live", "directions": [{"snapshot": null, "video": "https://strmr5.sha.maryland.gov/rtplive/9f00a319002200bd004e3336c4235c0a/playlist.m3u8", "label": ""}], "roadway": "MD-200", "county": ""}}, {"type": "Feature", "geometry": {"type": "Point", "coordinates": [-77.6393, 39.58584]}, "properties": {"name": "I-70 at Ex 35 MD 66 Mapleville Rd", "kind": "live", "directions": [{"snapshot": null, "video": "https://strmr3.sha.maryland.gov/rtplive/4600070f01c300b9005dd336c4235c0a/playlist.m3u8", "label": ""}], "roadway": "IS-70", "county": ""}}, {"type": "Feature", "geometry": {"type": "Point", "coordinates": [-76.8095, 39.144527]}, "properties": {"name": "US 1 AT GUILFORD RD", "kind": "live", "directions": [{"snapshot": null, "video": "https://strmr3.sha.maryland.gov/rtplive/1b017c6500a300dc0065d336c4235c0a/playlist.m3u8", "label": ""}], "roadway": "US-1", "county": ""}}, {"type": "Feature", "geometry": {"type": "Point", "coordinates": [-76.24728, 39.48529]}, "properties": {"name": "I-95 N of MD 543  (C016) MP 80.4", "kind": "live", "directions": [{"snapshot": null, "video": "https://strmr5.sha.maryland.gov/rtplive/cf00b70f00e70039004606363d235daa/playlist.m3u8", "label": ""}], "roadway": "IS-95", "county": ""}}, {"type": "Feature", "geometry": {"type": "Point", "coordinates": [-76.87425, 38.926334]}, "properties": {"name": "MD 202 AT MD 704", "kind": "live", "directions": [{"snapshot": null, "video": "https://strmr5.sha.maryland.gov/rtplive/5b01c85801f700d700437a45351f0214/playlist.m3u8", "label": ""}], "roadway": "MD-202", "county": ""}}, {"type": "Feature", "geometry": {"type": "Point", "coordinates": [-76.91994, 39.30532]}, "properties": {"name": "I-70 W of Ex 82 US 40 Baltimore National Pike", "kind": "live", "directions": [{"snapshot": null, "video": "https://strmr3.sha.maryland.gov/rtplive/52005fc1009800e20062d336c4235c0a/playlist.m3u8", "label": ""}], "roadway": "IS-70", "county": ""}}, {"type": "Feature", "geometry": {"type": "Point", "coordinates": [-79.3448, 39.528404]}, "properties": {"name": "US 219 AT DEEP CREEK LAKE", "kind": "live", "directions": [{"snapshot": null, "video": "https://strmr3.sha.maryland.gov/rtplive/9d0065ab002000af0068d336c4235c0a/playlist.m3u8", "label": ""}], "roadway": "US-219", "county": ""}}, {"type": "Feature", "geometry": {"type": "Point", "coordinates": [-77.01636, 39.326645]}, "properties": {"name": "I-70 at Ex 76 MD 97", "kind": "live", "directions": [{"snapshot": null, "video": "https://strmr3.sha.maryland.gov/rtplive/67005e99008200370061d336c4235c0a/playlist.m3u8", "label": ""}], "roadway": "IS-70", "county": ""}}, {"type": "Feature", "geometry": {"type": "Point", "coordinates": [-75.53788, 38.36996]}, "properties": {"name": "US 50 AT US 13 SALISBURY BYPASS", "kind": "live", "directions": [{"snapshot": null, "video": "https://strmr3.sha.maryland.gov/rtplive/d7000a1f00200031004a8436cf235d0a/playlist.m3u8", "label": ""}], "roadway": "US-50", "county": ""}}, {"type": "Feature", "geometry": {"type": "Point", "coordinates": [-76.66201, 39.4721]}, "properties": {"name": "I-83 at Exit 18 Warren Rd", "kind": "live", "directions": [{"snapshot": null, "video": "https://strmr5.sha.maryland.gov/rtplive/57010d62007a0043004be2369e235daa/playlist.m3u8", "label": ""}], "roadway": "IS-83", "county": ""}}, {"type": "Feature", "geometry": {"type": "Point", "coordinates": [-77.24327, 39.19205]}, "properties": {"name": "Frederick Rd (MD 355) at Germantown Rd (MD 118)(CAM 118)", "kind": "live", "directions": [{"snapshot": null, "video": "https://strmr5.sha.maryland.gov/rtplive/0601b17800060075004d823633235daa/playlist.m3u8", "label": ""}], "roadway": "MD-118", "county": ""}}, {"type": "Feature", "geometry": {"type": "Point", "coordinates": [-76.65883, 38.30523]}, "properties": {"name": "MD 5 AT NEWTOWNE NECK RD", "kind": "live", "directions": [{"snapshot": null, "video": "https://strmr3.sha.maryland.gov/rtplive/4400e8f9008c00070053fa36c4235c0a/playlist.m3u8", "label": ""}], "roadway": "MD-5", "county": ""}}, {"type": "Feature", "geometry": {"type": "Point", "coordinates": [-77.582054, 39.356236]}, "properties": {"name": "RWIS US 340 at MD 180", "kind": "live", "directions": [{"snapshot": null, "video": "https://strmr3.sha.maryland.gov/rtplive/3200a76b008000d30050fa36c4235c0a/playlist.m3u8", "label": ""}], "roadway": "US-340", "county": ""}}, {"type": "Feature", "geometry": {"type": "Point", "coordinates": [-76.50262, 39.312195]}, "properties": {"name": "I-695 PRIOR TO CHESACO AVE", "kind": "live", "directions": [{"snapshot": null, "video": "https://strmr5.sha.maryland.gov/rtplive/b700e75ce1df03c4004a06363d235daa/playlist.m3u8", "label": ""}], "roadway": "MD-695", "county": ""}}, {"type": "Feature", "geometry": {"type": "Point", "coordinates": [-77.141365, 39.026596]}, "properties": {"name": "I-270 N OF DEMOCRACY", "kind": "live", "directions": [{"snapshot": null, "video": "https://strmr5.sha.maryland.gov/rtplive/10027e5800f700d700437a45351f0214/playlist.m3u8", "label": ""}], "roadway": "IS-270", "county": ""}}, {"type": "Feature", "geometry": {"type": "Point", "coordinates": [-76.40898, 39.672184]}, "properties": {"name": "MD 24 AT MD 165", "kind": "live", "directions": [{"snapshot": null, "video": "https://strmr5.sha.maryland.gov/rtplive/08010a4401e30024005cd336c4235c0a/playlist.m3u8", "label": ""}], "roadway": "MD-24", "county": ""}}, {"type": "Feature", "geometry": {"type": "Point", "coordinates": [-76.73447, 39.38477]}, "properties": {"name": "I-695 O/L AT EX 20 MD 140", "kind": "live", "directions": [{"snapshot": null, "video": "https://strmr3.sha.maryland.gov/rtplive/0f012c5400e000aa004e3436c4235c0a/playlist.m3u8", "label": ""}], "roadway": "IS-695", "county": ""}}, {"type": "Feature", "geometry": {"type": "Point", "coordinates": [-77.002975, 39.032867]}, "properties": {"name": "Columbia Pk (US 29) at Lockwood Dr", "kind": "live", "directions": [{"snapshot": null, "video": "https://strmr5.sha.maryland.gov/rtplive/1d01d54801280075004d823633235daa/playlist.m3u8", "label": ""}], "roadway": "US-29", "county": ""}}, {"type": "Feature", "geometry": {"type": "Point", "coordinates": [-76.11875, 39.576416]}, "properties": {"name": "I-95 S of Tydings Br. (C011) MP 90.0", "kind": "live", "directions": [{"snapshot": null, "video": "https://strmr5.sha.maryland.gov/rtplive/9d016d2b00e30039004606363d235daa/playlist.m3u8", "label": ""}], "roadway": "IS-95", "county": ""}}, {"type": "Feature", "geometry": {"type": "Point", "coordinates": [-76.4332, 39.02504]}, "properties": {"name": "US 50 E OF ST MARGARETS", "kind": "live", "directions": [{"snapshot": null, "video": "https://strmr5.sha.maryland.gov/rtplive/7e01ec5800f700d700437a45351f0214/playlist.m3u8", "label": ""}], "roadway": "US-50", "county": ""}}, {"type": "Feature", "geometry": {"type": "Point", "coordinates": [-76.83728, 39.239655]}, "properties": {"name": "US 29 S AT MD 108", "kind": "live", "directions": [{"snapshot": null, "video": "https://strmr5.sha.maryland.gov/rtplive/6b002d0800d40002004b823633235daa/playlist.m3u8", "label": ""}], "roadway": "US-29", "county": ""}}, {"type": "Feature", "geometry": {"type": "Point", "coordinates": [-76.96134, 38.369648]}, "properties": {"name": "US 301 HWN BRIDGE MM. 3.03", "kind": "live", "directions": [{"snapshot": null, "video": "https://strmr3.sha.maryland.gov/rtplive/7c017dc5004e00330063d336c4235c0a/playlist.m3u8", "label": ""}], "roadway": "US-301", "county": ""}}, {"type": "Feature", "geometry": {"type": "Point", "coordinates": [-76.824905, 39.07686]}, "properties": {"name": "MD 295 2 MI SOUTH OF MD 198", "kind": "live", "directions": [{"snapshot": null, "video": "https://strmr3.sha.maryland.gov/rtplive/dfffda900085001b0058fa36c4235c0a/playlist.m3u8", "label": ""}], "roadway": "MD-295", "county": ""}}, {"type": "Feature", "geometry": {"type": "Point", "coordinates": [-76.09813, 39.58471]}, "properties": {"name": "RWIS I-95 AT TYDINGS BRIDGE", "kind": "live", "directions": [{"snapshot": null, "video": "https://strmr3.sha.maryland.gov/rtplive/8800c7b6006a00d40050fa36c4235c0a/playlist.m3u8", "label": ""}], "roadway": "IS-95", "county": ""}}, {"type": "Feature", "geometry": {"type": "Point", "coordinates": [-77.05382, 39.013775]}, "properties": {"name": "I-495 W of Ex 31 MD 97 Georgia Ave", "kind": "live", "directions": [{"snapshot": null, "video": "https://strmr5.sha.maryland.gov/rtplive/0b02795800f700d700437a45351f0214/playlist.m3u8", "label": ""}], "roadway": "IS-495", "county": ""}}, {"type": "Feature", "geometry": {"type": "Point", "coordinates": [-76.8719, 38.69497]}, "properties": {"name": "US 301 at MD 5", "kind": "live", "directions": [{"snapshot": null, "video": "https://strmr3.sha.maryland.gov/rtplive/ed001490006500cb004a02366d235daa/playlist.m3u8", "label": ""}], "roadway": "MD-5", "county": ""}}, {"type": "Feature", "geometry": {"type": "Point", "coordinates": [-75.84787, 38.49882]}, "properties": {"name": "US 50 AT MD 731 VIENNA TWR", "kind": "live", "directions": [{"snapshot": null, "video": "https://strmr5.sha.maryland.gov/rtplive/0901227b0096007b00488436cf235d0a/playlist.m3u8", "label": ""}], "roadway": "US-50", "county": ""}}, {"type": "Feature", "geometry": {"type": "Point", "coordinates": [-76.2801, 38.975407]}, "properties": {"name": "US 50 PAST EX 39B MD 552", "kind": "live", "directions": [{"snapshot": null, "video": "https://strmr3.sha.maryland.gov/rtplive/4f016345003e00b20061d336c4235c0a/playlist.m3u8", "label": ""}], "roadway": "US-50", "county": ""}}, {"type": "Feature", "geometry": {"type": "Point", "coordinates": [-76.33597, 38.983578]}, "properties": {"name": "WPL C-511A at Gantry N-25", "kind": "live", "directions": [{"snapshot": null, "video": "https://strmr3.sha.maryland.gov/rtplive/1000babb0095004d0063d336c4235c0a/playlist.m3u8", "label": ""}], "roadway": "US-50", "county": ""}}, {"type": "Feature", "geometry": {"type": "Point", "coordinates": [-78.275734, 39.70993]}, "properties": {"name": "RWIS I-68/SIDELING HILL", "kind": "live", "directions": [{"snapshot": null, "video": "https://strmr3.sha.maryland.gov/rtplive/c1ff9c0c00a100ab0050fa36c4235c0a/playlist.m3u8", "label": ""}], "roadway": "IS-68", "county": ""}}, {"type": "Feature", "geometry": {"type": "Point", "coordinates": [-76.55472, 39.20409]}, "properties": {"name": "I-695 E of Quarantine Rd (C051) MP 49.8", "kind": "live", "directions": [{"snapshot": null, "video": "https://strmr5.sha.maryland.gov/rtplive/e40037d1c47601b8004606363d235daa/playlist.m3u8", "label": ""}], "roadway": "MD-695", "county": ""}}, {"type": "Feature", "geometry": {"type": "Point", "coordinates": [-76.59067, 39.205883]}, "properties": {"name": "I-695 W of East Ordnance Rd (C049) MP 0.6", "kind": "live", "directions": [{"snapshot": null, "video": "https://strmr5.sha.maryland.gov/rtplive/7101276ec47601b8004606363d235daa/playlist.m3u8", "label": ""}], "roadway": "MD-695", "county": ""}}, {"type": "Feature", "geometry": {"type": "Point", "coordinates": [-76.24174, 38.96975]}, "properties": {"name": "US 50 AT KENT NARROWS BRIDGE", "kind": "live", "directions": [{"snapshot": null, "video": "https://strmr3.sha.maryland.gov/rtplive/37003b8e0098007b00488436cf235d0a/playlist.m3u8", "label": ""}], "roadway": "US-50", "county": ""}}, {"type": "Feature", "geometry": {"type": "Point", "coordinates": [-76.624245, 39.229332]}, "properties": {"name": "I-895 at Ritchie Spur (C047) MM 5.9", "kind": "live", "directions": [{"snapshot": null, "video": "https://strmr5.sha.maryland.gov/rtplive/db01192600680049004806363d235daa/playlist.m3u8", "label": ""}], "roadway": "IS-895", "county": ""}}, {"type": "Feature", "geometry": {"type": "Point", "coordinates": [-77.25554, 39.184135]}, "properties": {"name": "I-270 & Germantown Rd (MD 118)(CAM 7)", "kind": "live", "directions": [{"snapshot": null, "video": "https://strmr5.sha.maryland.gov/rtplive/8601655500f60074004d823633235daa/playlist.m3u8", "label": ""}], "roadway": "IS-270", "county": ""}}, {"type": "Feature", "geometry": {"type": "Point", "coordinates": [-76.75554, 39.140244]}, "properties": {"name": "MD 295 SB AT MD 175", "kind": "live", "directions": [{"snapshot": null, "video": "https://strmr5.sha.maryland.gov/rtplive/ed002d0f006200f20047833633235daa/playlist.m3u8", "label": ""}], "roadway": "MD-295", "county": ""}}, {"type": "Feature", "geometry": {"type": "Point", "coordinates": [-76.96755, 38.365963]}, "properties": {"name": "US 301 HWN BRIDGE M.M. 2.6", "kind": "live", "directions": [{"snapshot": null, "video": "https://strmr3.sha.maryland.gov/rtplive/dd008917005100330063d336c4235c0a/playlist.m3u8", "label": ""}], "roadway": "US-301", "county": ""}}, {"type": "Feature", "geometry": {"type": "Point", "coordinates": [-77.16743, 39.359795]}, "properties": {"name": "RWIS I-70 at MD 27", "kind": "live", "directions": [{"snapshot": null, "video": "https://strmr3.sha.maryland.gov/rtplive/e0ffa81e00a200ab0050fa36c4235c0a/playlist.m3u8", "label": ""}], "roadway": "IS-70", "county": ""}}, {"type": "Feature", "geometry": {"type": "Point", "coordinates": [-77.00542, 38.3611]}, "properties": {"name": "US 301 HWN BRIDGE G14", "kind": "live", "directions": [{"snapshot": null, "video": "https://strmr3.sha.maryland.gov/rtplive/7a00b9d800fe00320063d336c4235c0a/playlist.m3u8", "label": ""}], "roadway": "US-301", "county": ""}}, {"type": "Feature", "geometry": {"type": "Point", "coordinates": [-76.35445, 39.52655]}, "properties": {"name": "US 1B AT MD 24", "kind": "live", "directions": [{"snapshot": null, "video": "https://strmr5.sha.maryland.gov/rtplive/030006cc00b400580045e2369e235daa/playlist.m3u8", "label": ""}], "roadway": "MD-24", "county": ""}}, {"type": "Feature", "geometry": {"type": "Point", "coordinates": [-77.60681, 39.5373]}, "properties": {"name": "RWIS US 40 AT FRED/WASH CO. LINE", "kind": "live", "directions": [{"snapshot": null, "video": "https://strmr3.sha.maryland.gov/rtplive/7f01ae3d006200620053fa36c4235c0a/playlist.m3u8", "label": ""}], "roadway": "US-40", "county": ""}}, {"type": "Feature", "geometry": {"type": "Point", "coordinates": [-76.90467, 39.07317]}, "properties": {"name": "ICC MD 200 WB E OF I-95 MM 18.6 (C225)", "kind": "live", "directions": [{"snapshot": null, "video": "https://strmr5.sha.maryland.gov/rtplive/7f00d20700f400ae004e3336c4235c0a/playlist.m3u8", "label": ""}], "roadway": "MD-200", "county": ""}}, {"type": "Feature", "geometry": {"type": "Point", "coordinates": [-76.13036, 39.5759]}, "properties": {"name": "I-95 S. North of Lapidum Rd MM 89.4 (C012)", "kind": "live", "directions": [{"snapshot": null, "video": "https://strmr5.sha.maryland.gov/rtplive/60016c4b0054009e0061d336c4235c0a/playlist.m3u8", "label": ""}], "roadway": "IS-95", "county": ""}}, {"type": "Feature", "geometry": {"type": "Point", "coordinates": [-77.323326, 39.277]}, "properties": {"name": "RWIS I-270 AT MD 109", "kind": "live", "directions": [{"snapshot": null, "video": "https://strmr3.sha.maryland.gov/rtplive/c90065fa00e800c50067d336c4235c0a/playlist.m3u8", "label": ""}], "roadway": "IS-270", "county": ""}}, {"type": "Feature", "geometry": {"type": "Point", "coordinates": [-76.91666, 39.71775]}, "properties": {"name": "RWIS MD 30 AT PA LINE", "kind": "live", "directions": [{"snapshot": null, "video": "https://strmr3.sha.maryland.gov/rtplive/a5ffabd8008200d30050fa36c4235c0a/playlist.m3u8", "label": ""}], "roadway": "MD-30", "county": ""}}, {"type": "Feature", "geometry": {"type": "Point", "coordinates": [-76.474365, 39.322598]}, "properties": {"name": "MD 702 EAST OF I-695", "kind": "live", "directions": [{"snapshot": null, "video": "https://strmr3.sha.maryland.gov/rtplive/8000825e004200a9005fd336c4235c0a/playlist.m3u8", "label": ""}], "roadway": "MD-702", "county": ""}}, {"type": "Feature", "geometry": {"type": "Point", "coordinates": [-77.04067, 39.013603]}, "properties": {"name": "I-495 AT MD 97", "kind": "live", "directions": [{"snapshot": null, "video": "https://strmr3.sha.maryland.gov/rtplive/4e00dc82005e00bd0058fa36c4235c0a/playlist.m3u8", "label": ""}], "roadway": "IS-495", "county": ""}}, {"type": "Feature", "geometry": {"type": "Point", "coordinates": [-75.88154, 39.3635]}, "properties": {"name": "RWIS MD 213 AT SASSAFRAS RIVER", "kind": "live", "directions": [{"snapshot": null, "video": "https://strmr3.sha.maryland.gov/rtplive/0601b947006500d40050fa36c4235c0a/playlist.m3u8", "label": ""}], "roadway": "MD-213", "county": ""}}, {"type": "Feature", "geometry": {"type": "Point", "coordinates": [-76.418495, 39.337215]}, "properties": {"name": "RWIS MD 43 AT MD 150", "kind": "live", "directions": [{"snapshot": null, "video": "https://strmr3.sha.maryland.gov/rtplive/85ffb0bb00a200ab0050fa36c4235c0a/playlist.m3u8", "label": ""}], "roadway": "MD-43", "county": ""}}, {"type": "Feature", "geometry": {"type": "Point", "coordinates": [-77.02323, 39.005165]}, "properties": {"name": "Colesville Rd (US 29) at Dale Dr (MD 391)", "kind": "live", "directions": [{"snapshot": null, "video": "https://strmr3.sha.maryland.gov/rtplive/7b01c17e02630075004d823633235daa/playlist.m3u8", "label": ""}], "roadway": "US-29", "county": ""}}, {"type": "Feature", "geometry": {"type": "Point", "coordinates": [-76.409546, 39.017776]}, "properties": {"name": "US 50 WEST AT SANDY POINT", "kind": "live", "directions": [{"snapshot": null, "video": "https://strmr5.sha.maryland.gov/rtplive/3200f6fe0080000b005dd336c4235c0a/playlist.m3u8", "label": ""}], "roadway": "US-50", "county": ""}}, {"type": "Feature", "geometry": {"type": "Point", "coordinates": [-76.09986, 39.555595]}, "properties": {"name": "US 40 S HATEM BRIDGE", "kind": "live", "directions": [{"snapshot": null, "video": "https://strmr3.sha.maryland.gov/rtplive/e601657a00e5006a0062d336c4235c0a/playlist.m3u8", "label": ""}], "roadway": "US-40", "county": ""}}, {"type": "Feature", "geometry": {"type": "Point", "coordinates": [-76.629074, 39.102287]}, "properties": {"name": "I-97 N. of  EX 10 BENFIELD BLVD", "kind": "live", "directions": [{"snapshot": null, "video": "https://strmr5.sha.maryland.gov/rtplive/1e010edb006a00bb004af03676235daa/playlist.m3u8", "label": ""}], "roadway": "IS-97", "county": ""}}, {"type": "Feature", "geometry": {"type": "Point", "coordinates": [-77.28498, 39.231495]}, "properties": {"name": "Clarksburg Rd (MD 121) at I-270", "kind": "live", "directions": [{"snapshot": null, "video": "https://strmr5.sha.maryland.gov/rtplive/2d00cd8100080075004d823633235daa/playlist.m3u8", "label": ""}], "roadway": "IS-270", "county": ""}}, {"type": "Feature", "geometry": {"type": "Point", "coordinates": [-76.85035, 38.90696]}, "properties": {"name": "Medical Center Dr at I-95/495", "kind": "live", "directions": [{"snapshot": null, "video": "https://strmr5.sha.maryland.gov/rtplive/8b00620b00e100820065d336c4235c0a/playlist.m3u8", "label": ""}], "roadway": "IS-95", "county": ""}}, {"type": "Feature", "geometry": {"type": "Point", "coordinates": [-76.923035, 39.01912]}, "properties": {"name": "I-95/495 AT US 1", "kind": "live", "directions": [{"snapshot": null, "video": "https://strmr5.sha.maryland.gov/rtplive/440020db006e00800045833633235daa/playlist.m3u8", "label": ""}], "roadway": "IS-95", "county": ""}}, {"type": "Feature", "geometry": {"type": "Point", "coordinates": [-76.08087, 39.58592]}, "properties": {"name": "I-95 S of Frenchtown Rd (C009) MP 92.2", "kind": "live", "directions": [{"snapshot": null, "video": "https://strmr5.sha.maryland.gov/rtplive/2300899400e40039004606363d235daa/playlist.m3u8", "label": ""}], "roadway": "IS-95", "county": ""}}, {"type": "Feature", "geometry": {"type": "Point", "coordinates": [-76.672005, 39.63244]}, "properties": {"name": "I-83 AT MIDDLETOWN RD", "kind": "live", "directions": [{"snapshot": null, "video": "https://strmr3.sha.maryland.gov/rtplive/4c017c33003f00a9005fd336c4235c0a/playlist.m3u8", "label": ""}], "roadway": "IS-83", "county": ""}}, {"type": "Feature", "geometry": {"type": "Point", "coordinates": [-76.81378, 39.137123]}, "properties": {"name": "US 1 South of MD 32", "kind": "live", "directions": [{"snapshot": null, "video": "https://strmr3.sha.maryland.gov/rtplive/62006cbf00a000dc0065d336c4235c0a/playlist.m3u8", "label": ""}], "roadway": "US-1", "county": ""}}, {"type": "Feature", "geometry": {"type": "Point", "coordinates": [-76.56518, 39.205063]}, "properties": {"name": "I-695 W of Quarantine Rd (C050) MP 50.4", "kind": "live", "directions": [{"snapshot": null, "video": "https://strmr5.sha.maryland.gov/rtplive/aa002ea0c47601b8004606363d235daa/playlist.m3u8", "label": ""}], "roadway": "MD-695", "county": ""}}, {"type": "Feature", "geometry": {"type": "Point", "coordinates": [-77.04359, 39.099857]}, "properties": {"name": "ICC MD 200 EB W OF 182 LAYHILL RD MM 10.4 (C215)", "kind": "live", "directions": [{"snapshot": null, "video": "https://strmr5.sha.maryland.gov/rtplive/d7006b8f001c00bd004e3336c4235c0a/playlist.m3u8", "label": ""}], "roadway": "MD-200", "county": ""}}, {"type": "Feature", "geometry": {"type": "Point", "coordinates": [-76.53131, 39.308456]}, "properties": {"name": "I-95 N PAST EXIT 61 MM 60.0 (C042A on TRS 8082)", "kind": "live", "directions": [{"snapshot": null, "video": "https://strmr3.sha.maryland.gov/rtplive/1601e0b4007c00340055fa36c4235c0a/playlist.m3u8", "label": ""}], "roadway": "IS-95", "county": ""}}, {"type": "Feature", "geometry": {"type": "Point", "coordinates": [-77.13306, 39.13764]}, "properties": {"name": "ICC MD 200 WB, Deckover Interior, MM 4.7 (C207)", "kind": "live", "directions": [{"snapshot": null, "video": "https://strmr5.sha.maryland.gov/rtplive/b000389a059e004b004d06363d235daa/playlist.m3u8", "label": ""}], "roadway": "MD-200", "county": ""}}, {"type": "Feature", "geometry": {"type": "Point", "coordinates": [-76.49947, 39.011177]}, "properties": {"name": "US 50 E. OF SEVERN RIV", "kind": "live", "directions": [{"snapshot": null, "video": "https://strmr5.sha.maryland.gov/rtplive/a3000f3401a1000b005dd336c4235c0a/playlist.m3u8", "label": ""}], "roadway": "US-50", "county": ""}}, {"type": "Feature", "geometry": {"type": "Point", "coordinates": [-76.49526, 39.346127]}, "properties": {"name": "I-695 I/L East of I-95 (C025), MM 32.6", "kind": "live", "directions": [{"snapshot": null, "video": "https://strmr5.sha.maryland.gov/rtplive/4300479301dd00d9005cd336c4235c0a/playlist.m3u8", "label": ""}], "roadway": "IS-695", "county": ""}}, {"type": "Feature", "geometry": {"type": "Point", "coordinates": [-77.03523, 38.79309]}, "properties": {"name": "WW Bridge MD Pedestrian", "kind": "live", "directions": [{"snapshot": null, "video": "https://strmr3.sha.maryland.gov/rtplive/7e0106cf00240070004602366d235daa/playlist.m3u8", "label": ""}], "roadway": "IS-95", "county": ""}}, {"type": "Feature", "geometry": {"type": "Point", "coordinates": [-76.593994, 39.24085]}, "properties": {"name": "I-895 at Shell Rd (C038)  MM 7.9", "kind": "live", "directions": [{"snapshot": null, "video": "https://strmr5.sha.maryland.gov/rtplive/a9014bc3044b0160004806363d235daa/playlist.m3u8", "label": ""}], "roadway": "IS-895", "county": ""}}, {"type": "Feature", "geometry": {"type": "Point", "coordinates": [-75.89134, 38.91392]}, "properties": {"name": "MD 404 EAST OF MD 312", "kind": "live", "directions": [{"snapshot": null, "video": "https://strmr3.sha.maryland.gov/rtplive/f3ff10ed018300c0005cd336c4235c0a/playlist.m3u8", "label": ""}], "roadway": "MD-404", "county": ""}}, {"type": "Feature", "geometry": {"type": "Point", "coordinates": [-76.092224, 39.55971]}, "properties": {"name": "US 40 S Pier #18 Hatem Br (C063)", "kind": "live", "directions": [{"snapshot": null, "video": "https://strmr5.sha.maryland.gov/rtplive/5e012cb424680007004806363d235daa/playlist.m3u8", "label": ""}], "roadway": "US-40", "county": ""}}, {"type": "Feature", "geometry": {"type": "Point", "coordinates": [-76.87221, 39.4894]}, "properties": {"name": "MD 140 at Balt Co Line", "kind": "live", "directions": [{"snapshot": null, "video": "https://strmr3.sha.maryland.gov/rtplive/6700b9e700f300040053fa36c4235c0a/playlist.m3u8", "label": ""}], "roadway": "MD-140", "county": ""}}, {"type": "Feature", "geometry": {"type": "Point", "coordinates": [-76.9213, 38.820328]}, "properties": {"name": "I-95/495 AT MD 5", "kind": "live", "directions": [{"snapshot": null, "video": "https://strmr5.sha.maryland.gov/rtplive/76001126000a000e004ee33696235daa/playlist.m3u8", "label": ""}], "roadway": "IS-95", "county": ""}}, {"type": "Feature", "geometry": {"type": "Point", "coordinates": [-76.53211, 38.985447]}, "properties": {"name": "US 50 AT MD 2 - Ex 23 (Parole Twr)", "kind": "live", "directions": [{"snapshot": null, "video": "https://strmr5.sha.maryland.gov/rtplive/8801f65800f700d700437a45351f0214/playlist.m3u8", "label": ""}], "roadway": "US-50", "county": ""}}, {"type": "Feature", "geometry": {"type": "Point", "coordinates": [-75.54783, 38.064312]}, "properties": {"name": "RWIS US 13 AT US 113 (South)", "kind": "live", "directions": [{"snapshot": null, "video": "https://strmr3.sha.maryland.gov/rtplive/f1003d4002aa00fa0051fa36c4235c0a/playlist.m3u8", "label": ""}], "roadway": "US-13", "county": ""}}, {"type": "Feature", "geometry": {"type": "Point", "coordinates": [-76.785355, 39.17217]}, "properties": {"name": "US 1 AT MD 175", "kind": "live", "directions": [{"snapshot": null, "video": "https://strmr5.sha.maryland.gov/rtplive/6c016ae3006a00fb0064d336c4235c0a/playlist.m3u8", "label": ""}], "roadway": "US-1", "county": ""}}, {"type": "Feature", "geometry": {"type": "Point", "coordinates": [-77.121, 39.12775]}, "properties": {"name": "ICC MD 200 EB W OF MUNCASTER, MM 5.6 (C210)", "kind": "live", "directions": [{"snapshot": null, "video": "https://strmr5.sha.maryland.gov/rtplive/da0039a900af0059004d06363d235daa/playlist.m3u8", "label": ""}], "roadway": "MD-200", "county": ""}}, {"type": "Feature", "geometry": {"type": "Point", "coordinates": [-77.245834, 39.20456]}, "properties": {"name": "Frederick Rd (MD 355) at Ridge Rd (MD 27)(CAM 120)", "kind": "live", "directions": [{"snapshot": null, "video": "https://strmr5.sha.maryland.gov/rtplive/d400c13500070075004d823633235daa/playlist.m3u8", "label": ""}], "roadway": "MD-27", "county": ""}}, {"type": "Feature", "geometry": {"type": "Point", "coordinates": [-77.17176, 39.130302]}, "properties": {"name": "ICC MD 200 WB AT CRABBS BRANCH WAY, MM 2.2 (C201)", "kind": "live", "directions": [{"snapshot": null, "video": "https://strmr5.sha.maryland.gov/rtplive/c50024ab00ad0059004d06363d235daa/playlist.m3u8", "label": ""}], "roadway": "MD-200", "county": ""}}, {"type": "Feature", "geometry": {"type": "Point", "coordinates": [-76.83769, 39.46434]}, "properties": {"name": "I-795 AT COCKEYS MILL RD", "kind": "live", "directions": [{"snapshot": null, "video": "https://strmr5.sha.maryland.gov/rtplive/60000d3b003300ba004be2369e235daa/playlist.m3u8", "label": ""}], "roadway": "IS-795", "county": ""}}, {"type": "Feature", "geometry": {"type": "Point", "coordinates": [-77.16274, 39.13717]}, "properties": {"name": "ICC MD 200 WB N/METRO ACCESS RD, MM 2.9 (C202)", "kind": "live", "directions": [{"snapshot": null, "video": "https://strmr5.sha.maryland.gov/rtplive/2a012b0800ae0059004d06363d235daa/playlist.m3u8", "label": ""}], "roadway": "MD-200", "county": ""}}, {"type": "Feature", "geometry": {"type": "Point", "coordinates": [-76.48729, 39.33218]}, "properties": {"name": "I-695 AT PULASKI HWY", "kind": "live", "directions": [{"snapshot": null, "video": "https://strmr5.sha.maryland.gov/rtplive/cf013c5801f700d700437a45351f0214/playlist.m3u8", "label": ""}], "roadway": "US-40", "county": ""}}, {"type": "Feature", "geometry": {"type": "Point", "coordinates": [-77.404366, 39.44171]}, "properties": {"name": "US 15 AT MD 26", "kind": "live", "directions": [{"snapshot": null, "video": "https://strmr3.sha.maryland.gov/rtplive/ccffd39d00a000e90056fa36c4235c0a/playlist.m3u8", "label": ""}], "roadway": "US-15", "county": ""}}, {"type": "Feature", "geometry": {"type": "Point", "coordinates": [-76.30968, 38.976395]}, "properties": {"name": "WPL C-519 at Gantry N-31", "kind": "live", "directions": [{"snapshot": null, "video": "https://strmr3.sha.maryland.gov/rtplive/89016c1a007100d90063d336c4235c0a/playlist.m3u8", "label": ""}], "roadway": "US-50", "county": ""}}, {"type": "Feature", "geometry": {"type": "Point", "coordinates": [-76.51424, 39.37008]}, "properties": {"name": "I-695 AT EXIT 32 US 1 BELAIR RD", "kind": "live", "directions": [{"snapshot": null, "video": "https://strmr5.sha.maryland.gov/rtplive/e1ffe9c300a600dd005cd336c4235c0a/playlist.m3u8", "label": ""}], "roadway": "IS-695", "county": ""}}, {"type": "Feature", "geometry": {"type": "Point", "coordinates": [-76.30644, 39.458298]}, "properties": {"name": "I-95 N of Md 24 Ex 77 (C018) MM 76.7", "kind": "live", "directions": [{"snapshot": null, "video": "https://strmr5.sha.maryland.gov/rtplive/d801490d01350160004806363d235daa/playlist.m3u8", "label": ""}], "roadway": "IS-95", "county": ""}}, {"type": "Feature", "geometry": {"type": "Point", "coordinates": [-77.00117, 38.3615]}, "properties": {"name": "US 301 HWN BRIDGE G13", "kind": "live", "directions": [{"snapshot": null, "video": "https://strmr3.sha.maryland.gov/rtplive/fc017155004a00330063d336c4235c0a/playlist.m3u8", "label": ""}], "roadway": "US-301", "county": ""}}, {"type": "Feature", "geometry": {"type": "Point", "coordinates": [-76.92926, 39.11162]}, "properties": {"name": "US 29 SOUTH AT MD 198", "kind": "live", "directions": [{"snapshot": null, "video": "https://strmr3.sha.maryland.gov/rtplive/7b00633500950099005fd336c4235c0a/playlist.m3u8", "label": ""}], "roadway": "US-29", "county": ""}}, {"type": "Feature", "geometry": {"type": "Point", "coordinates": [-76.533966, 39.31936]}, "properties": {"name": "I-95 N of I-895 Split (C028) MP 14.7", "kind": "live", "directions": [{"snapshot": null, "video": "https://strmr5.sha.maryland.gov/rtplive/5f00c39300e70039004606363d235daa/playlist.m3u8", "label": ""}], "roadway": "IS-895", "county": ""}}, {"type": "Feature", "geometry": {"type": "Point", "coordinates": [-76.79312, 39.41277]}, "properties": {"name": "I-795 AT OWINGS MILLS BLVD", "kind": "live", "directions": [{"snapshot": null, "video": "https://strmr5.sha.maryland.gov/rtplive/c400ed1700f60018005cd336c4235c0a/playlist.m3u8", "label": ""}], "roadway": "IS-795", "county": ""}}, {"type": "Feature", "geometry": {"type": "Point", "coordinates": [-76.86239, 38.889507]}, "properties": {"name": "MD 214 AT RITCHIE RD", "kind": "live", "directions": [{"snapshot": null, "video": "https://strmr5.sha.maryland.gov/rtplive/4201af5801f700d700437a45351f0214/playlist.m3u8", "label": ""}], "roadway": "MD-214", "county": ""}}, {"type": "Feature", "geometry": {"type": "Point", "coordinates": [-77.17862, 38.9727]}, "properties": {"name": "I-495 at American Legion Brg", "kind": "live", "directions": [{"snapshot": null, "video": "https://strmr3.sha.maryland.gov/rtplive/6b016d77000b00bf0067d336c4235c0a/playlist.m3u8", "label": ""}], "roadway": "IS-495", "county": ""}}, {"type": "Feature", "geometry": {"type": "Point", "coordinates": [-76.63291, 39.19401]}, "properties": {"name": "I-97 S OF I-695", "kind": "live", "directions": [{"snapshot": null, "video": "https://strmr5.sha.maryland.gov/rtplive/b1011f5800f700d700437a45351f0214/playlist.m3u8", "label": ""}], "roadway": "IS-97", "county": ""}}, {"type": "Feature", "geometry": {"type": "Point", "coordinates": [-77.17872, 39.122543]}, "properties": {"name": "Frederick Rd (MD 355) at Shady Grove Rd (CAM 57)", "kind": "live", "directions": [{"snapshot": null, "video": "https://strmr5.sha.maryland.gov/rtplive/9c00a1c202600075004d823633235daa/playlist.m3u8", "label": ""}], "roadway": "IS-370", "county": ""}}, {"type": "Feature", "geometry": {"type": "Point", "coordinates": [-76.83728, 39.239655]}, "properties": {"name": "US 29 N AT MD 108", "kind": "live", "directions": [{"snapshot": null, "video": "https://strmr3.sha.maryland.gov/rtplive/f5005d0a00410098005fd336c4235c0a/playlist.m3u8", "label": ""}], "roadway": "US-29", "county": ""}}, {"type": "Feature", "geometry": {"type": "Point", "coordinates": [-76.38481, 39.58444]}, "properties": {"name": "MD 24 at Jarrettsville Road", "kind": "live", "directions": [{"snapshot": null, "video": "https://strmr3.sha.maryland.gov/rtplive/e1ffe19600f100a2005afa36c4235c0a/playlist.m3u8", "label": ""}], "roadway": "MD-24", "county": ""}}, {"type": "Feature", "geometry": {"type": "Point", "coordinates": [-75.95665, 39.632072]}, "properties": {"name": "I-95 N of Md 272 (C003) MP 99.9", "kind": "live", "directions": [{"snapshot": null, "video": "https://strmr5.sha.maryland.gov/rtplive/5c0161f800e10039004606363d235daa/playlist.m3u8", "label": ""}], "roadway": "IS-95", "county": ""}}, {"type": "Feature", "geometry": {"type": "Point", "coordinates": [-76.92907, 39.112087]}, "properties": {"name": "US 29 NORTH AT MD 198", "kind": "live", "directions": [{"snapshot": null, "video": "https://strmr5.sha.maryland.gov/rtplive/33000ab5004b0005004be33696235daa/playlist.m3u8", "label": ""}], "roadway": "US-29", "county": ""}}, {"type": "Feature", "geometry": {"type": "Point", "coordinates": [-77.151794, 39.009304]}, "properties": {"name": "I-495 at Bradley Blvd", "kind": "live", "directions": [{"snapshot": null, "video": "https://strmr5.sha.maryland.gov/rtplive/1f018d5800f700d700437a45351f0214/playlist.m3u8", "label": ""}], "roadway": "IS-495", "county": ""}}, {"type": "Feature", "geometry": {"type": "Point", "coordinates": [-78.89244, 39.639397]}, "properties": {"name": "RWIS I-68 EB AT MD 55", "kind": "live", "directions": [{"snapshot": null, "video": "https://strmr3.sha.maryland.gov/rtplive/0001ba0e00fa006d0054fa36c4235c0a/playlist.m3u8", "label": ""}], "roadway": "IS-68", "county": ""}}, {"type": "Feature", "geometry": {"type": "Point", "coordinates": [-77.174126, 39.085808]}, "properties": {"name": "I-270 & W Montgomery Ave (MD 28)(CAM 90)", "kind": "live", "directions": [{"snapshot": null, "video": "https://strmr5.sha.maryland.gov/rtplive/df012178036c0075004d823633235daa/playlist.m3u8", "label": ""}], "roadway": "IS-270", "county": ""}}, {"type": "Feature", "geometry": {"type": "Point", "coordinates": [-76.87814, 38.827396]}, "properties": {"name": "I-95/495 AT FORESTVILLE RD", "kind": "live", "directions": [{"snapshot": null, "video": "https://strmr3.sha.maryland.gov/rtplive/e5016766026300e50051fa36c4235c0a/playlist.m3u8", "label": ""}], "roadway": "IS-95", "county": ""}}, {"type": "Feature", "geometry": {"type": "Point", "coordinates": [-76.18863, 39.52745]}, "properties": {"name": "I-95 N of Md 22 (C014) MP 84.8", "kind": "live", "directions": [{"snapshot": null, "video": "https://strmr5.sha.maryland.gov/rtplive/4d00a5a100e50039004606363d235daa/playlist.m3u8", "label": ""}], "roadway": "IS-95", "county": ""}}, {"type": "Feature", "geometry": {"type": "Point", "coordinates": [-77.13947, 39.139145]}, "properties": {"name": "ICC MD 200 WB AT Olde Mill Run, MM 4.3 (C204)", "kind": "live", "directions": [{"snapshot": null, "video": "https://strmr5.sha.maryland.gov/rtplive/d60032ad00ae0059004d06363d235daa/playlist.m3u8", "label": ""}], "roadway": "MD-200", "county": ""}}, {"type": "Feature", "geometry": {"type": "Point", "coordinates": [-76.07665, 39.014744]}, "properties": {"name": "US 301 AT MD 213", "kind": "live", "directions": [{"snapshot": null, "video": "https://strmr3.sha.maryland.gov/rtplive/b9003a12012f008a005dd336c4235c0a/playlist.m3u8", "label": ""}], "roadway": "US-301", "county": ""}}, {"type": "Feature", "geometry": {"type": "Point", "coordinates": [-75.63184, 38.40178]}, "properties": {"name": "US 50 W OF SALISBURY", "kind": "live", "directions": [{"snapshot": null, "video": "https://strmr3.sha.maryland.gov/rtplive/2700e18300fd00f30056fa36c4235c0a/playlist.m3u8", "label": ""}], "roadway": "US-50", "county": ""}}, {"type": "Feature", "geometry": {"type": "Point", "coordinates": [-77.19585, 39.11885]}, "properties": {"name": "I-270 & I-370(CAM 84)", "kind": "live", "directions": [{"snapshot": null, "video": "https://strmr5.sha.maryland.gov/rtplive/f50009a903690075004d823633235daa/playlist.m3u8", "label": ""}], "roadway": "IS-270", "county": ""}}, {"type": "Feature", "geometry": {"type": "Point", "coordinates": [-77.16054, 39.01187]}, "properties": {"name": "Bradley Blvd (MD 191) at Seven Locks Rd", "kind": "live", "directions": [{"snapshot": null, "video": "https://strmr3.sha.maryland.gov/rtplive/3f01f568000b0075004d823633235daa/playlist.m3u8", "label": ""}], "roadway": "MD-191", "county": ""}}, {"type": "Feature", "geometry": {"type": "Point", "coordinates": [-76.928925, 38.98286]}, "properties": {"name": "Paint Branch Pkwy at MFRI", "kind": "live", "directions": [{"snapshot": null, "video": "https://strmr10.sha.maryland.gov/rtplive/c5ff65d2008900a1004f823633235daa/playlist.m3u8", "label": ""}], "roadway": "CO-3642", "county": ""}}, {"type": "Feature", "geometry": {"type": "Point", "coordinates": [-76.62457, 39.268005]}, "properties": {"name": "I-95 AT I-395", "kind": "live", "directions": [{"snapshot": null, "video": "https://strmr5.sha.maryland.gov/rtplive/bb01285801f700d700437a45351f0214/playlist.m3u8", "label": ""}], "roadway": "IS-95", "county": ""}}, {"type": "Feature", "geometry": {"type": "Point", "coordinates": [-76.47608, 39.361526]}, "properties": {"name": "I-95 N, North of King Ave (C023A), MP 65.1", "kind": "live", "directions": [{"snapshot": null, "video": "https://strmr5.sha.maryland.gov/rtplive/f80049ce008d0064004d06363d235daa/playlist.m3u8", "label": ""}], "roadway": "IS-95", "county": ""}}, {"type": "Feature", "geometry": {"type": "Point", "coordinates": [-76.88058, 38.943695]}, "properties": {"name": "US 50 AT EX 5 MD 410", "kind": "live", "directions": [{"snapshot": null, "video": "https://strmr5.sha.maryland.gov/rtplive/5eff09b3009600e9004ae33696235daa/playlist.m3u8", "label": ""}], "roadway": "US-50", "county": ""}}, {"type": "Feature", "geometry": {"type": "Point", "coordinates": [-77.027275, 38.99754]}, "properties": {"name": "Colesville Rd (US 29) at Fenton St", "kind": "live", "directions": [{"snapshot": null, "video": "https://strmr5.sha.maryland.gov/rtplive/13015dbd01210075004d823633235daa/playlist.m3u8", "label": ""}], "roadway": "US-29", "county": ""}}, {"type": "Feature", "geometry": {"type": "Point", "coordinates": [-76.54653, 39.28448]}, "properties": {"name": "I-95 N of O'Donnell St, S Turn (C041)  MP 57.7", "kind": "live", "directions": [{"snapshot": null, "video": "https://strmr5.sha.maryland.gov/rtplive/8301fd37011a004b004606363d235daa/playlist.m3u8", "label": ""}], "roadway": "IS-95", "county": ""}}, {"type": "Feature", "geometry": {"type": "Point", "coordinates": [-76.66767, 39.232983]}, "properties": {"name": "I-895 at I-695 Interchange MP 3.50 (C045)", "kind": "live", "directions": [{"snapshot": null, "video": "https://strmr5.sha.maryland.gov/rtplive/9000f4c3c37401b8004606363d235daa/playlist.m3u8", "label": ""}], "roadway": "IS-895", "county": ""}}, {"type": "Feature", "geometry": {"type": "Point", "coordinates": [-78.74731, 39.64817]}, "properties": {"name": "I-68 at MD 639 (Allegany 911 TWR)", "kind": "live", "directions": [{"snapshot": null, "video": "https://strmr5.sha.maryland.gov/rtplive/7300129800e800dd00451536ea235d0a/playlist.m3u8", "label": ""}], "roadway": "IS-68", "county": ""}}, {"type": "Feature", "geometry": {"type": "Point", "coordinates": [-76.37495, 38.99289]}, "properties": {"name": "WPL C507 at Gantry N-12 MP 2.7", "kind": "live", "directions": [{"snapshot": null, "video": "https://strmr3.sha.maryland.gov/rtplive/e30088da2e32001b00503336c4235c0a/playlist.m3u8", "label": ""}], "roadway": "US-50", "county": ""}}, {"type": "Feature", "geometry": {"type": "Point", "coordinates": [-76.87118, 38.943768]},