{"type": "FeatureCollection", "features": [{"type": "Feature", "geometry": {"type": "Point", "coordinates": [-84.039167, 35.928889]}, "properties": {"name": "I-40/75 @ West Hills", "kind": "live", "directions": [{"snapshot": "https://tnsnapshots.com/thumbs/R1_010.flv.png", "video": "https://mcleansfs1.us-east-1.skyvdn.com:443/rtplive/R1_010/playlist.m3u8", "label": ""}], "roadway": "I-40", "county": "Knoxville"}}, {"type": "Feature", "geometry": {"type": "Point", "coordinates": [-84.025278, 35.932222]}, "properties": {"name": "I-40/75 @ East of West Hills", "kind": "live", "directions": [{"snapshot": "https://tnsnapshots.com/thumbs/R1_011.flv.png", "video": "https://mcleansfs1.us-east-1.skyvdn.com:443/rtplive/R1_011/playlist.m3u8", "label": ""}], "roadway": "I-40", "county": "Knoxville"}}, {"type": "Feature", "geometry": {"type": "Point", "coordinates": [-84.015556, 35.934722]}, "properties": {"name": "I-40/75 @ Wiesgarber", "kind": "live", "directions": [{"snapshot": "https://tnsnapshots.com/thumbs/R1_012.flv.png", "video": "https://mcleansfs1.us-east-1.skyvdn.com:443/rtplive/R1_012/playlist.m3u8", "label": ""}], "roadway": "I-40", "county": "Knoxville"}}, {"type": "Feature", "geometry": {"type": "Point", "coordinates": [-84.002016, 35.94152]}, "properties": {"name": "I-40/75 @ Papermill Rd", "kind": "live", "directions": [{"snapshot": "https://tnsnapshots.com/thumbs/R1_013.flv.png", "video": "https://mcleansfs1.us-east-1.skyvdn.com:443/rtplive/R1_013/playlist.m3u8", "label": ""}], "roadway": "I-40", "county": "Knoxville"}}, {"type": "Feature", "geometry": {"type": "Point", "coordinates": [-83.991924, 35.94841]}, "properties": {"name": "I-40/75 @ Coleman Rd", "kind": "live", "directions": [{"snapshot": "https://tnsnapshots.com/thumbs/R1_014.flv.png", "video": "https://mcleansfs1.us-east-1.skyvdn.com:443/rtplive/R1_014/playlist.m3u8", "label": ""}], "roadway": "I-40", "county": "Knoxville"}}, {"type": "Feature", "geometry": {"type": "Point", "coordinates": [-83.979167, 35.9525]}, "properties": {"name": "I-40/75 @ Hollywood Rd", "kind": "live", "directions": [{"snapshot": "https://tnsnapshots.com/thumbs/R1_015.flv.png", "video": "https://mcleansfs1.us-east-1.skyvdn.com:443/rtplive/R1_015/playlist.m3u8", "label": ""}], "roadway": "I-40", "county": "Knoxville"}}, {"type": "Feature", "geometry": {"type": "Point", "coordinates": [-83.968056, 35.958611]}, "properties": {"name": "I-40 @ Liberty St", "kind": "live", "directions": [{"snapshot": "https://tnsnapshots.com/thumbs/R1_016.flv.png", "video": "https://mcleansfs1.us-east-1.skyvdn.com:443/rtplive/R1_016/playlist.m3u8", "label": ""}], "roadway": "I-40", "county": "Knoxville"}}, {"type": "Feature", "geometry": {"type": "Point", "coordinates": [-83.955278, 35.960833]}, "properties": {"name": "I-40 @ Middlebrook Pk", "kind": "live", "directions": [{"snapshot": "https://tnsnapshots.com/thumbs/R1_017.flv.png", "video": "https://mcleansfs1.us-east-1.skyvdn.com:443/rtplive/R1_017/playlist.m3u8", "label": ""}], "roadway": "I-40", "county": "Knoxville"}}, {"type": "Feature", "geometry": {"type": "Point", "coordinates": [-83.946111, 35.963611]}, "properties": {"name": "I-40 @ Alcoa Hwy", "kind": "live", "directions": [{"snapshot": "https://tnsnapshots.com/thumbs/R1_018.flv.png", "video": "https://mcleansfs1.us-east-1.skyvdn.com:443/rtplive/R1_018/playlist.m3u8", "label": ""}], "roadway": "I-40", "county": "Knoxville"}}, {"type": "Feature", "geometry": {"type": "Point", "coordinates": [-83.94, 35.9625]}, "properties": {"name": "I-40 @ 17th St", "kind": "live", "directions": [{"snapshot": "https://tnsnapshots.com/thumbs/R1_019.flv.png", "video": "https://mcleansfs1.us-east-1.skyvdn.com:443/rtplive/R1_019/playlist.m3u8", "label": ""}], "roadway": "I-40", "county": "Knoxville"}}, {"type": "Feature", "geometry": {"type": "Point", "coordinates": [-83.948333, 35.985]}, "properties": {"name": "I-275 @ Tennessee Ave", "kind": "live", "directions": [{"snapshot": "https://tnsnapshots.com/thumbs/R1_060.flv.png", "video": "https://mcleansfs1.us-east-1.skyvdn.com:443/rtplive/R1_060/playlist.m3u8", "label": ""}], "roadway": "I-275", "county": "Knoxville"}}, {"type": "Feature", "geometry": {"type": "Point", "coordinates": [-83.9525, 35.994167]}, "properties": {"name": "I-275 @ Heiskell Av", "kind": "live", "directions": [{"snapshot": "https://tnsnapshots.com/thumbs/R1_061.flv.png", "video": "https://mcleansfs1.us-east-1.skyvdn.com:443/rtplive/R1_061/playlist.m3u8", "label": ""}], "roadway": "I-275", "county": "Knoxville"}}, {"type": "Feature", "geometry": {"type": "Point", "coordinates": [-83.956111, 35.999444]}, "properties": {"name": "I-75/640 @ I-275", "kind": "live", "directions": [{"snapshot": "https://tnsnapshots.com/thumbs/R1_062.flv.png", "video": "https://mcleansfs1.us-east-1.skyvdn.com:443/rtplive/R1_062/playlist.m3u8", "label": ""}], "roadway": "I-75", "county": "Knoxville"}}, {"type": "Feature", "geometry": {"type": "Point", "coordinates": [-83.962222, 36.003889]}, "properties": {"name": "I-75 @ Woodlawn Dr", "kind": "live", "directions": [{"snapshot": "https://tnsnapshots.com/thumbs/R1_063.flv.png", "video": "https://mcleansfs1.us-east-1.skyvdn.com:443/rtplive/R1_063/playlist.m3u8", "label": ""}], "roadway": "I-75", "county": "Knoxville"}}, {"type": "Feature", "geometry": {"type": "Point", "coordinates": [-83.972222, 36.010556]}, "properties": {"name": "I-75 @ Merchant Dr", "kind": "live", "directions": [{"snapshot": "https://tnsnapshots.com/thumbs/R1_064.flv.png", "video": "https://mcleansfs1.us-east-1.skyvdn.com:443/rtplive/R1_064/playlist.m3u8", "label": ""}], "roadway": "I-75", "county": "Knoxville"}}, {"type": "Feature", "geometry": {"type": "Point", "coordinates": [-83.980833, 36.015]}, "properties": {"name": "I-75 @ Murray Dr", "kind": "live", "directions": [{"snapshot": "https://tnsnapshots.com/thumbs/R1_065.flv.png", "video": "https://mcleansfs1.us-east-1.skyvdn.com:443/rtplive/R1_065/playlist.m3u8", "label": ""}], "roadway": "I-75", "county": "Knoxville"}}, {"type": "Feature", "geometry": {"type": "Point", "coordinates": [-83.988889, 36.018056]}, "properties": {"name": "I-75 @ Callahan Rd", "kind": "live", "directions": [{"snapshot": "https://tnsnapshots.com/thumbs/R1_066.flv.png", "video": "https://mcleansfs1.us-east-1.skyvdn.com:443/rtplive/R1_066/playlist.m3u8", "label": ""}], "roadway": "I-75", "county": "Knoxville"}}, {"type": "Feature", "geometry": {"type": "Point", "coordinates": [-84.104167, 35.886389]}, "properties": {"name": "I-140 @ Westland Dr", "kind": "live", "directions": [{"snapshot": "https://tnsnapshots.com/thumbs/R1_067.flv.png", "video": "https://mcleansfs1.us-east-1.skyvdn.com:443/rtplive/R1_067/playlist.m3u8", "label": ""}], "roadway": "I-140", "county": "Knoxville"}}, {"type": "Feature", "geometry": {"type": "Point", "coordinates": [-84.114722, 35.892778]}, "properties": {"name": "I-140 @ Fox Rd", "kind": "live", "directions": [{"snapshot": "https://tnsnapshots.com/thumbs/R1_068.flv.png", "video": "https://mcleansfs1.us-east-1.skyvdn.com:443/rtplive/R1_068/playlist.m3u8", "label": ""}], "roadway": "I-140", "county": "Knoxville"}}, {"type": "Feature", "geometry": {"type": "Point", "coordinates": [-84.118889, 35.903333]}, "properties": {"name": "I-140 @ Kingston Pk", "kind": "live", "directions": [{"snapshot": "https://tnsnapshots.com/thumbs/R1_069.flv.png", "video": "https://mcleansfs1.us-east-1.skyvdn.com:443/rtplive/R1_069/playlist.m3u8", "label": ""}], "roadway": "I-140", "county": "Knoxville"}}, {"type": "Feature", "geometry": {"type": "Point", "coordinates": [-84.388202, 35.86547]}, "properties": {"name": "I-40 East @ 359.9 Mile Marker", "kind": "live", "directions": [{"snapshot": "https://tnsnapshots.com/thumbs/R1_076.flv.png", "video": "https://mcleansfs1.us-east-1.skyvdn.com:443/rtplive/R1_076/playlist.m3u8", "label": ""}], "roadway": "I-40", "county": "Knoxville"}}, {"type": "Feature", "geometry": {"type": "Point", "coordinates": [-84.3246, 35.874733]}, "properties": {"name": "I-40 East @ 363.9 Mile Marker", "kind": "live", "directions": [{"snapshot": "https://tnsnapshots.com/thumbs/R1_077.flv.png", "video": "https://mcleansfs1.us-east-1.skyvdn.com:443/rtplive/R1_077/playlist.m3u8", "label": ""}], "roadway": "I-40", "county": "Knoxville"}}, {"type": "Feature", "geometry": {"type": "Point", "coordinates": [-84.307283, 35.868633]}, "properties": {"name": "I-40 East @ 364.9 Mile Marker", "kind": "live", "directions": [{"snapshot": "https://tnsnapshots.com/thumbs/R1_078.flv.png", "video": "https://mcleansfs1.us-east-1.skyvdn.com:443/rtplive/R1_078/playlist.m3u8", "label": ""}], "roadway": "I-40", "county": "Knoxville"}}, {"type": "Feature", "geometry": {"type": "Point", "coordinates": [-84.2451, 35.874766]}, "properties": {"name": "I-40 West @ 368.6 Mile Marker", "kind": "live", "directions": [{"snapshot": "https://tnsnapshots.com/thumbs/R1_081.flv.png", "video": "https://mcleansfs1.us-east-1.skyvdn.com:443/rtplive/R1_081/playlist.m3u8", "label": ""}], "roadway": "I-40", "county": "Knoxville"}}, {"type": "Feature", "geometry": {"type": "Point", "coordinates": [-84.215933, 35.887916]}, "properties": {"name": "I-40 West @ 370.5 Mile Marker", "kind": "live", "directions": [{"snapshot": "https://tnsnapshots.com/thumbs/R1_083.flv.png", "video": "https://mcleansfs1.us-east-1.skyvdn.com:443/rtplive/R1_083/playlist.m3u8", "label": ""}], "roadway": "I-40", "county": "Knoxville"}}, {"type": "Feature", "geometry": {"type": "Point", "coordinates": [-84.1753, 35.89885]}, "properties": {"name": "I-40 East @ 372.9 Mile Marker", "kind": "live", "directions": [{"snapshot": "https://tnsnapshots.com/thumbs/R1_085.flv.png", "video": "https://mcleansfs1.us-east-1.skyvdn.com:443/rtplive/R1_085/playlist.m3u8", "label": ""}], "roadway": "I-40", "county": "Knoxville"}}, {"type": "Feature", "geometry": {"type": "Point", "coordinates": [-83.774833, 36.00272]}, "properties": {"name": "I-40 @ Strawberry Plains", "kind": "live", "directions": [{"snapshot": "https://tnsnapshots.com/thumbs/R1_088.flv.png", "video": "https://mcleansfs1.us-east-1.skyvdn.com:443/rtplive/R1_088/playlist.m3u8", "label": ""}], "roadway": "I-40", "county": "Knoxville"}}, {"type": "Feature", "geometry": {"type": "Point", "coordinates": [-83.749082, 36.005382]}, "properties": {"name": "I-40 West @ 399.3 Mile Marker", "kind": "live", "directions": [{"snapshot": "https://tnsnapshots.com/thumbs/R1_089.flv.png", "video": "https://mcleansfs1.us-east-1.skyvdn.com:443/rtplive/R1_089/playlist.m3u8", "label": ""}], "roadway": "I-40", "county": "Knoxville"}}, {"type": "Feature", "geometry": {"type": "Point", "coordinates": [-84.278916, 35.8285]}, "properties": {"name": "I-75 North @ 81.4 Mile Marker", "kind": "live", "directions": [{"snapshot": "https://tnsnapshots.com/thumbs/R1_091.flv.png", "video": "https://mcleansfs1.us-east-1.skyvdn.com:443/rtplive/R1_091/playlist.m3u8", "label": ""}], "roadway": "I-75", "county": "Knoxville"}}, {"type": "Feature", "geometry": {"type": "Point", "coordinates": [-84.27055, 35.8437]}, "properties": {"name": "I-75 North @ 82.6 Mile Marker", "kind": "live", "directions": [{"snapshot": "https://tnsnapshots.com/thumbs/R1_092.flv.png", "video": "https://mcleansfs1.us-east-1.skyvdn.com:443/rtplive/R1_092/playlist.m3u8", "label": ""}], "roadway": "I-75", "county": "Knoxville"}}, {"type": "Feature", "geometry": {"type": "Point", "coordinates": [-85.15625025, 35.04280024]}, "properties": {"name": "I-75 @ Shallowford Rd", "kind": "live", "directions": [{"snapshot": "https://tnsnapshots.com/thumbs/R2_041.flv.png", "video": "https://mcleansfs1.us-east-1.skyvdn.com:443/rtplive/R2_041/playlist.m3u8", "label": ""}], "roadway": "I-75", "county": "Chattanooga"}}, {"type": "Feature", "geometry": {"type": "Point", "coordinates": [-85.14531684, 35.05093341]}, "properties": {"name": "I-75 @ Standifer Gap Rd", "kind": "live", "directions": [{"snapshot": "https://tnsnapshots.com/thumbs/R2_042.flv.png", "video": "https://mcleansfs1.us-east-1.skyvdn.com:443/rtplive/R2_042/playlist.m3u8", "label": ""}], "roadway": "I-75", "county": "Chattanooga"}}, {"type": "Feature", "geometry": {"type": "Point", "coordinates": [-85.13038322, 35.05951619]}, "properties": {"name": "I-75 @ Bonny Oaks Dr", "kind": "live", "directions": [{"snapshot": "https://tnsnapshots.com/thumbs/R2_043.flv.png", "video": "https://mcleansfs1.us-east-1.skyvdn.com:443/rtplive/R2_043/playlist.m3u8", "label": ""}], "roadway": "I-75", "county": "Chattanooga"}}, {"type": "Feature", "geometry": {"type": "Point", "coordinates": [-85.1245685, 35.06683665]}, "properties": {"name": "I-75 North of Bonny Oaks Dr", "kind": "live", "directions": [{"snapshot": "https://tnsnapshots.com/thumbs/R2_044.flv.png", "video": "https://mcleansfs1.us-east-1.skyvdn.com:443/rtplive/R2_044/playlist.m3u8", "label": ""}], "roadway": "I-75", "county": "Chattanooga"}}, {"type": "Feature", "geometry": {"type": "Point", "coordinates": [-85.11208308, 35.07429994]}, "properties": {"name": "I-75 @ Volkswagen Drive", "kind": "live", "directions": [{"snapshot": "https://tnsnapshots.com/thumbs/R2_045.flv.png", "video": "https://mcleansfs1.us-east-1.skyvdn.com:443/rtplive/R2_045/playlist.m3u8", "label": ""}], "roadway": "I-75", "county": "Chattanooga"}}, {"type": "Feature", "geometry": {"type": "Point", "coordinates": [-85.08386642, 35.08114967]}, "properties": {"name": "I-75 South of Ooltewah exit", "kind": "live", "directions": [{"snapshot": "https://tnsnapshots.com/thumbs/R2_047.flv.png", "video": "https://mcleansfs1.us-east-1.skyvdn.com:443/rtplive/R2_047/playlist.m3u8", "label": ""}], "roadway": "I-75", "county": "Chattanooga"}}, {"type": "Feature", "geometry": {"type": "Point", "coordinates": [-85.06716657, 35.08636693]}, "properties": {"name": "I-75 @ Ooltewah exit", "kind": "live", "directions": [{"snapshot": "https://tnsnapshots.com/thumbs/R2_048.flv.png", "video": "https://mcleansfs1.us-east-1.skyvdn.com:443/rtplive/R2_048/playlist.m3u8", "label": ""}], "roadway": "I-75", "county": "Chattanooga"}}, {"type": "Feature", "geometry": {"type": "Point", "coordinates": [-85.0514997, 35.10506638]}, "properties": {"name": "I-75 South of White Oak Mountain", "kind": "live", "directions": [{"snapshot": "https://tnsnapshots.com/thumbs/R2_049.flv.png", "video": "https://mcleansfs1.us-east-1.skyvdn.com:443/rtplive/R2_049/playlist.m3u8", "label": ""}], "roadway": "I-75", "county": "Chattanooga"}}, {"type": "Feature", "geometry": {"type": "Point", "coordinates": [-85.04571716, 35.1180336]}, "properties": {"name": "I-75 @ 14.2 TURNAROUND", "kind": "live", "directions": [{"snapshot": "https://tnsnapshots.com/thumbs/R2_050.flv.png", "video": "https://mcleansfs1.us-east-1.skyvdn.com:443/rtplive/R2_050/playlist.m3u8", "label": ""}], "roadway": "I-75", "county": "Chattanooga"}}, {"type": "Feature", "geometry": {"type": "Point", "coordinates": [-84.808821, 35.304576]}, "properties": {"name": "I-75 SB North OF CHARLESTON", "kind": "live", "directions": [{"snapshot": "https://tnsnapshots.com/thumbs/R2_091.flv.png", "video": "https://mcleansfs1.us-east-1.skyvdn.com:443/rtplive/R2_091/playlist.m3u8", "label": ""}], "roadway": "I-75", "county": "Chattanooga"}}, {"type": "Feature", "geometry": {"type": "Point", "coordinates": [-84.798114, 35.31711]}, "properties": {"name": "I-75 @ HIWASSEE RIVER", "kind": "live", "directions": [{"snapshot": "https://tnsnapshots.com/thumbs/R2_092.flv.png", "video": "https://mcleansfs1.us-east-1.skyvdn.com:443/rtplive/R2_092/playlist.m3u8", "label": ""}], "roadway": "I-75", "county": "Chattanooga"}}, {"type": "Feature", "geometry": {"type": "Point", "coordinates": [-84.782747, 35.325062]}, "properties": {"name": "I-75 @ LAMONTVILLE/CALHOUN", "kind": "live", "directions": [{"snapshot": "https://tnsnapshots.com/thumbs/R2_093.flv.png", "video": "https://mcleansfs1.us-east-1.skyvdn.com:443/rtplive/R2_093/playlist.m3u8", "label": ""}], "roadway": "I-75", "county": "Chattanooga"}}, {"type": "Feature", "geometry": {"type": "Point", "coordinates": [-84.774667, 35.326393]}, "properties": {"name": "I-75 South OF LAMONTVILLE RD", "kind": "live", "directions": [{"snapshot": "https://tnsnapshots.com/thumbs/R2_094.flv.png", "video": "https://mcleansfs1.us-east-1.skyvdn.com:443/rtplive/R2_094/playlist.m3u8", "label": ""}], "roadway": "I-75", "county": "Chattanooga"}}, {"type": "Feature", "geometry": {"type": "Point", "coordinates": [-84.753463, 35.339873]}, "properties": {"name": "I-75 North OF COUNTY RD 29", "kind": "live", "directions": [{"snapshot": "https://tnsnapshots.com/thumbs/R2_095.flv.png", "video": "https://mcleansfs1.us-east-1.skyvdn.com:443/rtplive/R2_095/playlist.m3u8", "label": ""}], "roadway": "I-75", "county": "Chattanooga"}}, {"type": "Feature", "geometry": {"type": "Point", "coordinates": [-84.733956, 35.375993]}, "properties": {"name": "I-75 South OF RICEVILLE", "kind": "live", "directions": [{"snapshot": "https://tnsnapshots.com/thumbs/R2_096.flv.png", "video": "https://mcleansfs1.us-east-1.skyvdn.com:443/rtplive/R2_096/playlist.m3u8", "label": ""}], "roadway": "I-75", "county": "Chattanooga"}}, {"type": "Feature", "geometry": {"type": "Point", "coordinates": [-84.719591, 35.393283]}, "properties": {"name": "I-75 SB @ RICEVILLE", "kind": "live", "directions": [{"snapshot": "https://tnsnapshots.com/thumbs/R2_097.flv.png", "video": "https://mcleansfs1.us-east-1.skyvdn.com:443/rtplive/R2_097/playlist.m3u8", "label": ""}], "roadway": "I-75", "county": "Chattanooga"}}, {"type": "Feature", "geometry": {"type": "Point", "coordinates": [-84.7141, 35.39849]}, "properties": {"name": "I-75 North OF RICEVILLE", "kind": "live", "directions": [{"snapshot": "https://tnsnapshots.com/thumbs/R2_098.flv.png", "video": "https://mcleansfs1.us-east-1.skyvdn.com:443/rtplive/R2_098/playlist.m3u8", "label": ""}], "roadway": "I-75", "county": "Chattanooga"}}, {"type": "Feature", "geometry": {"type": "Point", "coordinates": [-84.6964, 35.41914]}, "properties": {"name": "I-75 South OF REST AREA", "kind": "live", "directions": [{"snapshot": "https://tnsnapshots.com/thumbs/R2_099.flv.png", "video": "https://mcleansfs1.us-east-1.skyvdn.com:443/rtplive/R2_099/playlist.m3u8", "label": ""}], "roadway": "I-75", "county": "Chattanooga"}}, {"type": "Feature", "geometry": {"type": "Point", "coordinates": [-86.73672679, 36.14302451]}, "properties": {"name": "I-40 EB e/o Elm Hill Pike (MM 212.48) (R3-001)", "kind": "live", "directions": [{"snapshot": "https://tnsnapshots.com/thumbs/R3_001.flv.png", "video": "https://mcleansfs1.us-east-1.skyvdn.com:443/rtplive/R3_001/playlist.m3u8", "label": ""}], "roadway": "I-40", "county": "Nashville"}}, {"type": "Feature", "geometry": {"type": "Point", "coordinates": [-86.74467168, 36.1474834]}, "properties": {"name": "I-40 EB @ Fesslers Lane (MM 211.92) (R3-002)", "kind": "live", "directions": [{"snapshot": "https://tnsnapshots.com/thumbs/R3_002.flv.png", "video": "https://mcleansfs1.us-east-1.skyvdn.com:443/rtplive/R3_002/playlist.m3u8", "label": ""}], "roadway": "I-40", "county": "Nashville"}}, {"type": "Feature", "geometry": {"type": "Point", "coordinates": [-86.7594, 36.153495]}, "properties": {"name": "I-40 EB  w/o Fesslers Lane (MM 211.20) (R3-003)", "kind": "live", "directions": [{"snapshot": "https://tnsnapshots.com/thumbs/R3_003.flv.png", "video": "https://mcleansfs1.us-east-1.skyvdn.com:443/rtplive/R3_003/playlist.m3u8", "label": ""}], "roadway": "I-40", "county": "Nashville"}}, {"type": "Feature", "geometry": {"type": "Point", "coordinates": [-86.75866, 36.15763]}, "properties": {"name": "I-24 EB to I-40 WB e/o Silliman Evans Bridge (MM 49.50) (R3-004)", "kind": "live", "directions": [{"snapshot": "https://tnsnapshots.com/thumbs/R3_004.flv.png", "video": "https://mcleansfs1.us-east-1.skyvdn.com:443/rtplive/R3_004/playlist.m3u8", "label": ""}], "roadway": "I-24", "county": "Nashville"}}, {"type": "Feature", "geometry": {"type": "Point", "coordinates": [-86.75885, 36.16018]}, "properties": {"name": "I-24 WB w/o Silliman Evans Bridge (MM 49.03) (R3-005)", "kind": "live", "directions": [{"snapshot": "https://tnsnapshots.com/thumbs/R3_005.flv.png", "video": "https://mcleansfs1.us-east-1.skyvdn.com:443/rtplive/R3_005/playlist.m3u8", "label": ""}], "roadway": "I-24", "county": "Nashville"}}, {"type": "Feature", "geometry": {"type": "Point", "coordinates": [-86.76644, 36.17041]}, "properties": {"name": "I-24 WB @ Ellington Parkway (MM 48.17) (R3-006)", "kind": "live", "directions": [{"snapshot": "https://tnsnapshots.com/thumbs/R3_006.flv.png", "video": "https://mcleansfs1.us-east-1.skyvdn.com:443/rtplive/R3_006/playlist.m3u8", "label": ""}], "roadway": "I-24", "county": "Nashville"}}, {"type": "Feature", "geometry": {"type": "Point", "coordinates": [-86.76956, 36.17386]}, "properties": {"name": "I-24 WB w/o Ellington Parkway (MM 47.54) (R3-007)", "kind": "live", "directions": [{"snapshot": "https://tnsnapshots.com/thumbs/R3_007.flv.png", "video": "https://mcleansfs1.us-east-1.skyvdn.com:443/rtplive/R3_007/playlist.m3u8", "label": ""}], "roadway": "I-24", "county": "Nashville"}}, {"type": "Feature", "geometry": {"type": "Point", "coordinates": [-86.77441, 36.18791]}, "properties": {"name": "I-24 WB  e/o I-65 Junction (MM 47.20) (R3-008)", "kind": "live", "directions": [{"snapshot": "https://tnsnapshots.com/thumbs/R3_008.flv.png", "video": "https://mcleansfs1.us-east-1.skyvdn.com:443/rtplive/R3_008/playlist.m3u8", "label": ""}], "roadway": "I-24", "county": "Nashville"}}, {"type": "Feature", "geometry": {"type": "Point", "coordinates": [-86.77478, 36.19234]}, "properties": {"name": "I-65 SB  @ I-24 (North Loop) ((no effective MM)) (R3-009)", "kind": "live", "directions": [{"snapshot": "https://tnsnapshots.com/thumbs/R3_009.flv.png", "video": "https://mcleansfs1.us-east-1.skyvdn.com:443/rtplive/R3_009/playlist.m3u8", "label": ""}], "roadway": "I-65", "county": "Nashville"}}, {"type": "Feature", "geometry": {"type": "Point", "coordinates": [-86.77528, 36.19886]}, "properties": {"name": "I-65 NB @ Fern Avenue (MM 86.57) (R3-010)", "kind": "live", "directions": [{"snapshot": "https://tnsnapshots.com/thumbs/R3_010.flv.png", "video": "https://mcleansfs1.us-east-1.skyvdn.com:443/rtplive/R3_010/playlist.m3u8", "label": ""}], "roadway": "I-65", "county": "Nashville"}}, {"type": "Feature", "geometry": {"type": "Point", "coordinates": [-86.85691, 36.15279]}, "properties": {"name": "I-40 WB @ White Bridge Road (MM 203.95) (R3-051)", "kind": "live", "directions": [{"snapshot": "https://tnsnapshots.com/thumbs/R3_051.flv.png", "video": "https://mcleansfs1.us-east-1.skyvdn.com:443/rtplive/R3_051/playlist.m3u8", "label": ""}], "roadway": "I-40", "county": "Nashville"}}, {"type": "Feature", "geometry": {"type": "Point", "coordinates": [-86.88361, 36.14346]}, "properties": {"name": "I-40 WB e/o Charlotte Pike (MM 201.59) (R3-052)", "kind": "live", "directions": [{"snapshot": "https://tnsnapshots.com/thumbs/R3_052.flv.png", "video": "https://mcleansfs1.us-east-1.skyvdn.com:443/rtplive/R3_052/playlist.m3u8", "label": ""}], "roadway": "I-40", "county": "Nashville"}}, {"type": "Feature", "geometry": {"type": "Point", "coordinates": [-86.77412, 36.1146]}, "properties": {"name": "I-65 SB @ I-440 Junction ((no effective MM)) (R3-053)", "kind": "live", "directions": [{"snapshot": "https://tnsnapshots.com/thumbs/R3_053.flv.png", "video": "https://mcleansfs1.us-east-1.skyvdn.com:443/rtplive/R3_053/playlist.m3u8", "label": ""}], "roadway": "I-65", "county": "Nashville"}}, {"type": "Feature", "geometry": {"type": "Point", "coordinates": [-86.76287, 36.08297]}, "properties": {"name": "I-65 NB @ Harding Place (MM 77.83) (R3-054)", "kind": "live", "directions": [{"snapshot": "https://tnsnapshots.com/thumbs/R3_054.flv.png", "video": "https://mcleansfs1.us-east-1.skyvdn.com:443/rtplive/R3_054/playlist.m3u8", "label": ""}], "roadway": "I-65", "county": "Nashville"}}, {"type": "Feature", "geometry": {"type": "Point", "coordinates": [-86.70146, 36.08629]}, "properties": {"name": "I-24 WB @ Harding Place (MM 55.32) (R3-055)", "kind": "live", "directions": [{"snapshot": "https://tnsnapshots.com/thumbs/R3_055.flv.png", "video": "https://mcleansfs1.us-east-1.skyvdn.com:443/rtplive/R3_055/playlist.m3u8", "label": ""}], "roadway": "I-24", "county": "Nashville"}}, {"type": "Feature", "geometry": {"type": "Point", "coordinates": [-86.72682, 36.12625]}, "properties": {"name": "I-24 EB @ I-440 Junction ((no effective MM)) (R3-056)", "kind": "live", "directions": [{"snapshot": "https://tnsnapshots.com/thumbs/R3_056.flv.png", "video": "https://mcleansfs1.us-east-1.skyvdn.com:443/rtplive/R3_056/playlist.m3u8", "label": ""}], "roadway": "I-24", "county": "Nashville"}}, {"type": "Feature", "geometry": {"type": "Point", "coordinates": [-86.72279, 36.14056]}, "properties": {"name": "I-40 EB w/o Spence Lane (MM 213.70) (R3-057)", "kind": "live", "directions": [{"snapshot": "https://tnsnapshots.com/thumbs/R3_057.flv.png", "video": "https://mcleansfs1.us-east-1.skyvdn.com:443/rtplive/R3_057/playlist.m3u8", "label": ""}], "roadway": "I-40", "county": "Nashville"}}, {"type": "Feature", "geometry": {"type": "Point", "coordinates": [-86.72862, 36.13818]}, "properties": {"name": "I-40 WB @ I-24 Junction ((no effective MM)) (R3-058)", "kind": "live", "directions": [{"snapshot": "https://tnsnapshots.com/thumbs/R3_058.flv.png", "video": "https://mcleansfs1.us-east-1.skyvdn.com:443/rtplive/R3_058/playlist.m3u8", "label": ""}], "roadway": "I-40", "county": "Nashville"}}, {"type": "Feature", "geometry": {"type": "Point", "coordinates": [-86.64555, 36.14589]}, "properties": {"name": "I-40 WB w/o Stewarts Ferry Pike (MM 218.50) (R3-059)", "kind": "live", "directions": [{"snapshot": "https://tnsnapshots.com/thumbs/R3_059.flv.png", "video": "https://mcleansfs1.us-east-1.skyvdn.com:443/rtplive/R3_059/playlist.m3u8", "label": ""}], "roadway": "I-40", "county": "Nashville"}}, {"type": "Feature", "geometry": {"type": "Point", "coordinates": [-86.75031, 36.24039]}, "properties": {"name": "Briley Pkwy WB @ I-65 Junction (MM 16.20) (R3-060)", "kind": "live", "directions": [{"snapshot": "https://tnsnapshots.com/thumbs/R3_060.flv.png", "video": "https://mcleansfs1.us-east-1.skyvdn.com:443/rtplive/R3_060/playlist.m3u8", "label": ""}], "roadway": "Briley Pkwy", "county": "Nashville"}}, {"type": "Feature", "geometry": {"type": "Point", "coordinates": [-86.90217, 36.12685]}, "properties": {"name": "I-40 EB w/o Charlotte Pike (MM 200.80) (R3-101)", "kind": "live", "directions": [{"snapshot": "https://tnsnapshots.com/thumbs/R3_101.flv.png", "video": "https://mcleansfs1.us-east-1.skyvdn.com:443/rtplive/R3_101/playlist.m3u8", "label": ""}], "roadway": "I-40", "county": "Nashville"}}, {"type": "Feature", "geometry": {"type": "Point", "coordinates": [-86.88743, 36.13973]}, "properties": {"name": "I-40 EB w/o American  Road (MM 202.01) (R3-102)", "kind": "live", "directions": [{"snapshot": "https://tnsnapshots.com/thumbs/R3_102.flv.png", "video": "https://mcleansfs1.us-east-1.skyvdn.com:443/rtplive/R3_102/playlist.m3u8", "label": ""}], "roadway": "I-40", "county": "Nashville"}}, {"type": "Feature", "geometry": {"type": "Point", "coordinates": [-86.87498, 36.14892]}, "properties": {"name": "I-40 WB @ American Road (MM 202.97) (R3-103)", "kind": "live", "directions": [{"snapshot": "https://tnsnapshots.com/thumbs/R3_103.flv.png", "video": "https://mcleansfs1.us-east-1.skyvdn.com:443/rtplive/R3_103/playlist.m3u8", "label": ""}], "roadway": "I-40", "county": "Nashville"}}, {"type": "Feature", "geometry": {"type": "Point", "coordinates": [-86.86611, 36.15036]}, "properties": {"name": "I-40 EB w/o WH BRDG (MM 203.4) (R3_104)", "kind": "live", "directions": [{"snapshot": "https://tnsnapshots.com/thumbs/R3_104.flv.png", "video": "https://mcleansfs1.us-east-1.skyvdn.com:443/rtplive/R3_104/playlist.m3u8", "label": ""}], "roadway": "I-40", "county": "Nashville"}}, {"type": "Feature", "geometry": {"type": "Point", "coordinates": [-86.85643, 36.15338]}, "properties": {"name": "I-40 WB @ Briley Parkway (MM 204.02) (R3-105)", "kind": "live", "directions": [{"snapshot": "https://tnsnapshots.com/thumbs/R3_105.flv.png", "video": "https://mcleansfs1.us-east-1.skyvdn.com:443/rtplive/R3_105/playlist.m3u8", "label": ""}], "roadway": "I-40", "county": "Nashville"}}, {"type": "Feature", "geometry": {"type": "Point", "coordinates": [-86.68542, 36.14283]}, "properties": {"name": "I-40 EB w /o Briley Parkway (Hermitage) (MM 215.90) (R3-106)", "kind": "live", "directions": [{"snapshot": "https://tnsnapshots.com/thumbs/R3_106.flv.png", "video": "https://mcleansfs1.us-east-1.skyvdn.com:443/rtplive/R3_106/playlist.m3u8", "label": ""}], "roadway": "I-40", "county": "Nashville"}}, {"type": "Feature", "geometry": {"type": "Point", "coordinates": [-86.67717, 36.14232]}, "properties": {"name": "I-40 WB  w/o Donelson Pike (MM 216.36) (R3-107)", "kind": "live", "directions": [{"snapshot": "https://tnsnapshots.com/thumbs/R3_107.flv.png", "video": "https://mcleansfs1.us-east-1.skyvdn.com:443/rtplive/R3_107/playlist.m3u8", "label": ""}], "roadway": "I-40", "county": "Nashville"}}, {"type": "Feature", "geometry": {"type": "Point", "coordinates": [-86.66687, 36.14167]}, "properties": {"name": "I-40 WB @ Donelson Pike (MM 216.94) (R3-108)", "kind": "live", "directions": [{"snapshot": "https://tnsnapshots.com/thumbs/R3_108.flv.png", "video": "https://mcleansfs1.us-east-1.skyvdn.com:443/rtplive/R3_108/playlist.m3u8", "label": ""}], "roadway": "I-40", "county": "Nashville"}}, {"type": "Feature", "geometry": {"type": "Point", "coordinates": [-86.65308, 36.14162]}, "properties": {"name": "I-40 EB e/o Donelson Pike (MM 217.72) (R3-109)", "kind": "live", "directions": [{"snapshot": "https://tnsnapshots.com/thumbs/R3_109.flv.png", "video": "https://mcleansfs1.us-east-1.skyvdn.com:443/rtplive/R3_109/playlist.m3u8", "label": ""}], "roadway": "I-40", "county": "Nashville"}}, {"type": "Feature", "geometry": {"type": "Point", "coordinates": [-86.63002, 36.15568]}, "properties": {"name": "I-40 WB @ Stewarts Ferry Pike (MM 219.34) (R3-110)", "kind": "live", "directions": [{"snapshot": "https://tnsnapshots.com/thumbs/R3_110.flv.png", "video": "https://mcleansfs1.us-east-1.skyvdn.com:443/rtplive/R3_110/playlist.m3u8", "label": ""}], "roadway": "I-40", "county": "Nashville"}}, {"type": "Feature", "geometry": {"type": "Point", "coordinates": [-86.63042, 36.022745]}, "properties": {"name": "I-24 @ MM 61 e/o Hickory Hollow Pkwy (R3-172)", "kind": "live", "directions": [{"snapshot": "https://tnsnapshots.com/thumbs/R3_172.flv.png", "video": "https://mcleansfs1.us-east-1.skyvdn.com:443/rtplive/R3_172/playlist.m3u8", "label": ""}], "roadway": "WO OHB", "county": "Nashville"}}, {"type": "Feature", "geometry": {"type": "Point", "coordinates": [-86.620152, 36.014697]}, "properties": {"name": "I-24 @ MM 62 Old Hickory Blvd (R3_173)", "kind": "live", "directions": [{"snapshot": "https://tnsnapshots.com/thumbs/R3_173.flv.png", "video": "https://mcleansfs1.us-east-1.skyvdn.com:443/rtplive/R3_173/playlist.m3u8", "label": ""}], "roadway": "At OHB", "county": "Nashville"}}, {"type": "Feature", "geometry": {"type": "Point", "coordinates": [-86.596511, 35.994779]}, "properties": {"name": "I-24 @ Waldron Rd MM 64.4 (R3_174)", "kind": "live", "directions": [{"snapshot": "https://tnsnapshots.com/thumbs/R3_174.flv.png", "video": "https://mcleansfs1.us-east-1.skyvdn.com:443/rtplive/R3_174/playlist.m3u8", "label": ""}], "roadway": "At Waldron", "county": "Nashville"}}, {"type": "Feature", "geometry": {"type": "Point", "coordinates": [-86.586083, 35.988234]}, "properties": {"name": "I-24 e/o Waldron Rd (MM65.2) (R3_175)", "kind": "live", "directions": [{"snapshot": "https://tnsnapshots.com/thumbs/R3_175.flv.png", "video": "https://mcleansfs1.us-east-1.skyvdn.com:443/rtplive/R3_175/playlist.m3u8", "label": ""}], "roadway": "I-24", "county": "Nashville"}}, {"type": "Feature", "geometry": {"type": "Point", "coordinates": [-86.57085667, 35.97487167]}, "properties": {"name": "I-24 @ Sam Ridley (MM66.4) (R3_176)", "kind": "live", "directions": [{"snapshot": "https://tnsnapshots.com/thumbs/R3_176.flv.png", "video": "https://mcleansfs1.us-east-1.skyvdn.com:443/rtplive/R3_176/playlist.m3u8", "label": ""}], "roadway": "I-24", "county": "Nashville"}}, {"type": "Feature", "geometry": {"type": "Point", "coordinates": [-86.56177667, 35.96105333]}, "properties": {"name": "I-24 @ Sam Ridley (MM66.8) (R3_177)", "kind": "live", "directions": [{"snapshot": "https://tnsnapshots.com/thumbs/R3_177.flv.png", "video": "https://mcleansfs1.us-east-1.skyvdn.com:443/rtplive/R3_177/playlist.m3u8", "label": ""}], "roadway": "I-24", "county": "Nashville"}}, {"type": "Feature", "geometry": {"type": "Point", "coordinates": [-86.55126667, 35.95147]}, "properties": {"name": "I-24 @ Rocky Fork Rd (MM67.2) (R3_178)", "kind": "live", "directions": [{"snapshot": "https://tnsnapshots.com/thumbs/R3_178.flv.png", "video": "https://mcleansfs1.us-east-1.skyvdn.com:443/rtplive/R3_178/playlist.m3u8", "label": ""}], "roadway": "I-24", "county": "Nashville"}}, {"type": "Feature", "geometry": {"type": "Point", "coordinates": [-87.26482498, 36.02209314]}, "properties": {"name": "I-40 @ SR 840 JCT () (R3_202)", "kind": "live", "directions": [{"snapshot": "https://tnsnapshots.com/thumbs/R3_202.flv.png", "video": "https://mcleansfs1.us-east-1.skyvdn.com:443/rtplive/R3_202/playlist.m3u8", "label": ""}], "roadway": "I-40", "county": "Nashville"}}, {"type": "Feature", "geometry": {"type": "Point", "coordinates": [-86.725977, 36.118927]}, "properties": {"name": "I-24 E/O I-40 (MM 53.0) (R3-207)", "kind": "live", "directions": [{"snapshot": "https://tnsnapshots.com/thumbs/R3_207.flv.png", "video": "https://mcleansfs1.us-east-1.skyvdn.com:443/rtplive/R3_207/playlist.m3u8", "label": ""}], "roadway": "I-24", "county": "Nashville"}}, {"type": "Feature", "geometry": {"type": "Point", "coordinates": [-86.724743, 36.114388]}, "properties": {"name": "I-24 W/O Thompson LN (MM 53.3) (R3-208)", "kind": "live", "directions": [{"snapshot": "https://tnsnapshots.com/thumbs/R3_208.flv.png", "video": "https://mcleansfs1.us-east-1.skyvdn.com:443/rtplive/R3_208/playlist.m3u8", "label": ""}], "roadway": "I-24", "county": "Nashville"}}, {"type": "Feature", "geometry": {"type": "Point", "coordinates": [-86.719955, 36.107054]}, "properties": {"name": "I-24 E/O Briley Pkwy (MM 53.9) (R3-209)", "kind": "live", "directions": [{"snapshot": "https://tnsnapshots.com/thumbs/R3_209.flv.png", "video": "https://mcleansfs1.us-east-1.skyvdn.com:443/rtplive/R3_209/playlist.m3u8", "label": ""}], "roadway": "I-24", "county": "Nashville"}}, {"type": "Feature", "geometry": {"type": "Point", "coordinates": [-86.716288, 36.104757]}, "properties": {"name": "I-24 E/O Briley Pkwy (MM 54.1) (R3-210)", "kind": "live", "directions": [{"snapshot": "https://tnsnapshots.com/thumbs/R3_210.flv.png", "video": "https://mcleansfs1.us-east-1.skyvdn.com:443/rtplive/R3_210/playlist.m3u8", "label": ""}], "roadway": "I-24", "county": "Nashville"}}, {"type": "Feature", "geometry": {"type": "Point", "coordinates": [-86.712746, 36.102043]}, "properties": {"name": "I-24 W/O Antioch Pk (MM 54.4) (R3-211)", "kind": "live", "directions": [{"snapshot": "https://tnsnapshots.com/thumbs/R3_211.flv.png", "video": "https://mcleansfs1.us-east-1.skyvdn.com:443/rtplive/R3_211/playlist.m3u8", "label": ""}], "roadway": "I-24", "county": "Nashville"}}, {"type": "Feature", "geometry": {"type": "Point", "coordinates": [-86.706656, 36.094718]}, "properties": {"name": "I-24 E/O Antioch Pk (MM 55.0) (R3-212)", "kind": "live", "directions": [{"snapshot": "https://tnsnapshots.com/thumbs/R3_212.flv.png", "video": "https://mcleansfs1.us-east-1.skyvdn.com:443/rtplive/R3_212/playlist.m3u8", "label": ""}], "roadway": "I-24", "county": "Nashville"}}, {"type": "Feature", "geometry": {"type": "Point", "coordinates": [-86.7017, 36.087679]}, "properties": {"name": "I-24 W/O Harding Pl (MM 55.5) (R3-213)", "kind": "live", "directions": [{"snapshot": "https://tnsnapshots.com/thumbs/R3_213.flv.png", "video": "https://mcleansfs1.us-east-1.skyvdn.com:443/rtplive/R3_213/playlist.m3u8", "label": ""}], "roadway": "I-24", "county": "Nashville"}}, {"type": "Feature", "geometry": {"type": "Point", "coordinates": [-86.698086, 36.082341]}, "properties": {"name": "I-24 E/O Harding Pl (MM 56.0) (R3-214)", "kind": "live", "directions": [{"snapshot": "https://tnsnapshots.com/thumbs/R3_214.flv.png", "video": "https://mcleansfs1.us-east-1.skyvdn.com:443/rtplive/R3_214/playlist.m3u8", "label": ""}], "roadway": "I-24", "county": "Nashville"}}, {"type": "Feature", "geometry": {"type": "Point", "coordinates": [-86.693919, 36.075576]}, "properties": {"name": "I-24 W/O Haywood Ln MM56.5 (R3_215)", "kind": "live", "directions": [{"snapshot": "https://tnsnapshots.com/thumbs/R3_215.flv.png", "video": "https://mcleansfs1.us-east-1.skyvdn.com:443/rtplive/R3_215/playlist.m3u8", "label": ""}], "roadway": "I-24", "county": "Nashville"}}, {"type": "Feature", "geometry": {"type": "Point", "coordinates": [-86.68536, 36.065721]}, "properties": {"name": "I-24 E/O Haywood Ln (MM 57.3) (R3-216)", "kind": "live", "directions": [{"snapshot": "https://tnsnapshots.com/thumbs/R3_216.flv.png", "video": "https://mcleansfs1.us-east-1.skyvdn.com:443/rtplive/R3_216/playlist.m3u8", "label": ""}], "roadway": "I-24", "county": "Nashville"}}, {"type": "Feature", "geometry": {"type": "Point", "coordinates": [-86.681597, 36.062125]}, "properties": {"name": "I-24 E/O Haywood LN (MM 57.7) (R3-217)", "kind": "live", "directions": [{"snapshot": "https://tnsnapshots.com/thumbs/R3_217.flv.png", "video": "https://mcleansfs1.us-east-1.skyvdn.com:443/rtplive/R3_217/playlist.m3u8", "label": ""}], "roadway": "I-24", "county": "Nashville"}}, {"type": "Feature", "geometry": {"type": "Point", "coordinates": [-86.674852, 36.055627]}, "properties": {"name": "I-24 W/0 Blue Hole Rd (MM 58.3) (R3-218)", "kind": "live", "directions": [{"snapshot": "https://tnsnapshots.com/thumbs/R3_218.flv.png", "video": "https://mcleansfs1.us-east-1.skyvdn.com:443/rtplive/R3_218/playlist.m3u8", "label": ""}], "roadway": "I-24", "county": "Nashville"}}, {"type": "Feature", "geometry": {"type": "Point", "coordinates": [-86.662892, 36.047797]}, "properties": {"name": "I-24 W/O Bell Rd (MM 59.1) (R3-219)", "kind": "live", "directions": [{"snapshot": "https://tnsnapshots.com/thumbs/R3_219.flv.png", "video": "https://mcleansfs1.us-east-1.skyvdn.com:443/rtplive/R3_219/playlist.m3u8", "label": ""}], "roadway": "I-24", "county": "Nashville"}}, {"type": "Feature", "geometry": {"type": "Point", "coordinates": [-86.656392, 36.043472]}, "properties": {"name": "I-24 E/O Bell Rd (MM 59.6) (R3-220)", "kind": "live", "directions": [{"snapshot": "https://tnsnapshots.com/thumbs/R3_220.flv.png", "video": "https://mcleansfs1.us-east-1.skyvdn.com:443/rtplive/R3_220/playlist.m3u8", "label": ""}], "roadway": "I-24", "county": "Nashville"}}, {"type": "Feature", "geometry": {"type": "Point", "coordinates": [-86.646927, 36.038483]}, "properties": {"name": "I-24 E/O Hickory Hollow Pkwy (MM 60.2)(R3_221)", "kind": "live", "directions": [{"snapshot": "https://tnsnapshots.com/thumbs/R3_221.flv.png", "video": "https://mcleansfs1.us-east-1.skyvdn.com:443/rtplive/R3_221/playlist.m3u8", "label": ""}], "roadway": "I-24", "county": "Nashville"}}, {"type": "Feature", "geometry": {"type": "Point", "coordinates": [-86.64371, 36.034764]}, "properties": {"name": "I-24 E/O Hickory Hollow Pkwy (MM 60.5) (R3-222)", "kind": "live", "directions": [{"snapshot": "https://tnsnapshots.com/thumbs/R3_222.flv.png", "video": "https://mcleansfs1.us-east-1.skyvdn.com:443/rtplive/R3_222/playlist.m3u8", "label": ""}], "roadway": "I-24", "county": "Nashville"}}, {"type": "Feature", "geometry": {"type": "Point", "coordinates": [-86.635916, 36.027872]}, "properties": {"name": "I-24 E/O Old Franklin Rd (MM 61.2) (R3-223)", "kind": "live", "directions": [{"snapshot": "https://tnsnapshots.com/thumbs/R3_223.flv.png", "video": "https://mcleansfs1.us-east-1.skyvdn.com:443/rtplive/R3_223/playlist.m3u8", "label": ""}], "roadway": "I-24", "county": "Nashville"}}, {"type": "Feature", "geometry": {"type": "Point", "coordinates": [-86.624268, 36.018156]}, "properties": {"name": "I-24 W/O Old Frankline Rd (MM 62.1) (R3-224)", "kind": "live", "directions": [{"snapshot": "https://tnsnapshots.com/thumbs/R3_224.flv.png", "video": "https://mcleansfs1.us-east-1.skyvdn.com:443/rtplive/R3_224/playlist.m3u8", "label": ""}], "roadway": "I-24", "county": "Nashville"}}, {"type": "Feature", "geometry": {"type": "Point", "coordinates": [-86.24753369, 36.19333635]}, "properties": {"name": "I-40 e/o SR 840  () (R3_301)", "kind": "live", "directions": [{"snapshot": "https://tnsnapshots.com/thumbs/R3_301.flv.png", "video": "https://mcleansfs1.us-east-1.skyvdn.com:443/rtplive/R3_301/playlist.m3u8", "label": ""}], "roadway": "I-40", "county": "Nashville"}}, {"type": "Feature", "geometry": {"type": "Point", "coordinates": [-86.35227318, 36.18341481]}, "properties": {"name": "I-40 @ SR 840  () (R3_302)", "kind": "live", "directions": [{"snapshot": "https://tnsnapshots.com/thumbs/R3_302.flv.png", "video": "https://mcleansfs1.us-east-1.skyvdn.com:443/rtplive/R3_302/playlist.m3u8", "label": ""}], "roadway": "I-40", "county": "Nashville"}}, {"type": "Feature", "geometry": {"type": "Point", "coordinates": [-90.1821333, 35.16736667]}, "properties": {"name": "I-40/ I-55 at Missouri St.", "kind": "live", "directions": [{"snapshot": "https://tnsnapshots.com/thumbs/R4_031.flv.png", "video": "https://mcleansfs1.us-east-1.skyvdn.com:443/rtplive/R4_031/playlist.m3u8", "label": ""}], "roadway": "I-40", "county": "Memphis"}}, {"type": "Feature", "geometry": {"type": "Point", "coordinates": [-90.0227167, 35.14988333]}, "properties": {"name": "I-40/ I240 Midtown Jct.", "kind": "live", "directions": [{"snapshot": "https://tnsnapshots.com/thumbs/R4_032.flv.png", "video": "https://mcleansfs1.us-east-1.skyvdn.com:443/rtplive/R4_032/playlist.m3u8", "label": ""}], "roadway": "I-40", "county": "Memphis"}}, {"type": "Feature", "geometry": {"type": "Point", "coordinates": [-90.0198333, 35.15795]}, "properties": {"name": "I-40 @ Jackson Ave.", "kind": "live", "directions": [{"snapshot": "https://tnsnapshots.com/thumbs/R4_033.flv.png", "video": "https://mcleansfs1.us-east-1.skyvdn.com:443/rtplive/R4_033/playlist.m3u8", "label": ""}], "roadway": "I-40", "county": "Memphis"}}, {"type": "Feature", "geometry": {"type": "Point", "coordinates": [-90.0182167, 35.17216667]}, "properties": {"name": "I-40 @ Chelsea Ave.", "kind": "live", "directions": [{"snapshot": "https://tnsnapshots.com/thumbs/R4_034.flv.png", "video": "https://mcleansfs1.us-east-1.skyvdn.com:443/rtplive/R4_034/playlist.m3u8", "label": ""}], "roadway": "I-40", "county": "Memphis"}}, {"type": "Feature", "geometry": {"type": "Point", "coordinates": [-90.0175333, 35.18271667]}, "properties": {"name": "I-40 East of Chelsea Ave.", "kind": "live", "directions": [{"snapshot": "https://tnsnapshots.com/thumbs/R4_035.flv.png", "video": "https://mcleansfs1.us-east-1.skyvdn.com:443/rtplive/R4_035/playlist.m3u8", "label": ""}], "roadway": "I-40", "county": "Memphis"}}, {"type": "Feature", "geometry": {"type": "Point", "coordinates": [-90.0164, 35.19173333]}, "properties": {"name": "I-40 at Jct with US 51(Danny Thomas)", "kind": "live", "directions": [{"snapshot": "https://tnsnapshots.com/thumbs/R4_036.flv.png", "video": "https://mcleansfs1.us-east-1.skyvdn.com:443/rtplive/R4_036/playlist.m3u8", "label": ""}], "roadway": "I-40", "county": "Memphis"}}, {"type": "Feature", "geometry": {"type": "Point", "coordinates": [-90.0301667, 35.19926667]}, "properties": {"name": "US 51 (Danny Thomas) at Jct I-240", "kind": "live", "directions": [{"snapshot": "https://tnsnapshots.com/thumbs/R4_037.flv.png", "video": "https://mcleansfs1.us-east-1.skyvdn.com:443/rtplive/R4_037/playlist.m3u8", "label": ""}], "roadway": "51", "county": "Memphis"}}, {"type": "Feature", "geometry": {"type": "Point", "coordinates": [-90.0075333, 35.19158333]}, "properties": {"name": "I-40 @ Watkins", "kind": "live", "directions": [{"snapshot": "https://tnsnapshots.com/thumbs/R4_038.flv.png", "video": "https://mcleansfs1.us-east-1.skyvdn.com:443/rtplive/R4_038/playlist.m3u8", "label": ""}], "roadway": "I-40", "county": "Memphis"}}, {"type": "Feature", "geometry": {"type": "Point", "coordinates": [-89.9884667, 35.1922]}, "properties": {"name": "I-40 @ McLean", "kind": "live", "directions": [{"snapshot": "https://tnsnapshots.com/thumbs/R4_039.flv.png", "video": "https://mcleansfs1.us-east-1.skyvdn.com:443/rtplive/R4_039/playlist.m3u8", "label": ""}], "roadway": "I-40", "county": "Memphis"}}, {"type": "Feature", "geometry": {"type": "Point", "coordinates": [-89.9751833, 35.1915]}, "properties": {"name": "I-40 @ Hollywood", "kind": "live", "directions": [{"snapshot": "https://tnsnapshots.com/thumbs/R4_040.flv.png", "video": "https://mcleansfs1.us-east-1.skyvdn.com:443/rtplive/R4_040/playlist.m3u8", "label": ""}], "roadway": "I-40", "county": "Memphis"}}, {"type": "Feature", "geometry": {"type": "Point", "coordinates": [-90.0022833, 35.00108333]}, "properties": {"name": "I-55 n of MS State Line", "kind": "live", "directions": [{"snapshot": "https://tnsnapshots.com/thumbs/R4_081.flv.png", "video": "https://mcleansfs1.us-east-1.skyvdn.com:443/rtplive/R4_081/playlist.m3u8", "label": ""}], "roadway": "I-55", "county": "Memphis"}}, {"type": "Feature", "geometry": {"type": "Point", "coordinates": [-90.0224667, 35.1421]}, "properties": {"name": "I-240 north of Union Av.", "kind": "live", "directions": [{"snapshot": "https://tnsnapshots.com/thumbs/R4_082.flv.png", "video": "https://mcleansfs1.us-east-1.skyvdn.com:443/rtplive/R4_082/playlist.m3u8", "label": ""}], "roadway": "I-240", "county": "Memphis"}}, {"type": "Feature", "geometry": {"type": "Point", "coordinates": [-90.0243667, 35.13788333]}, "properties": {"name": "I-240 @ Union", "kind": "live", "directions": [{"snapshot": "https://tnsnapshots.com/thumbs/R4_083.flv.png", "video": "https://mcleansfs1.us-east-1.skyvdn.com:443/rtplive/R4_083/playlist.m3u8", "label": ""}], "roadway": "I-240", "county": "Memphis"}}, {"type": "Feature", "geometry": {"type": "Point", "coordinates": [-90.0235, 35.12975]}, "properties": {"name": "I-240 @ Lamar Av.", "kind": "live", "directions": [{"snapshot": "https://tnsnapshots.com/thumbs/R4_084.flv.png", "video": "https://mcleansfs1.us-east-1.skyvdn.com:443/rtplive/R4_084/playlist.m3u8", "label": ""}], "roadway": "I-240", "county": "Memphis"}}, {"type": "Feature", "geometry": {"type": "Point", "coordinates": [-90.0257167, 35.12328333]}, "properties": {"name": "I-240 south of Lamar", "kind": "live", "directions": [{"snapshot": "https://tnsnapshots.com/thumbs/R4_085.flv.png", "video": "https://mcleansfs1.us-east-1.skyvdn.com:443/rtplive/R4_085/playlist.m3u8", "label": ""}], "roadway": "I-240", "county": "Memphis"}}, {"type": "Feature", "geometry": {"type": "Point", "coordinates": [-90.0262667, 35.11778333]}, "properties": {"name": "I-240 north of S. Pkwy", "kind": "live", "directions": [{"snapshot": "https://tnsnapshots.com/thumbs/R4_086.flv.png", "video": "https://mcleansfs1.us-east-1.skyvdn.com:443/rtplive/R4_086/playlist.m3u8", "label": ""}], "roadway": "I-240", "county": "Memphis"}}, {"type": "Feature", "geometry": {"type": "Point", "coordinates": [-90.0294, 35.1101]}, "properties": {"name": "I-240 @ South Parkway", "kind": "live", "directions": [{"snapshot": "https://tnsnapshots.com/thumbs/R4_087.flv.png", "video": "https://mcleansfs1.us-east-1.skyvdn.com:443/rtplive/R4_087/playlist.m3u8", "label": ""}], "roadway": "I-240", "county": "Memphis"}}, {"type": "Feature", "geometry": {"type": "Point", "coordinates": [-90.02935, 35.1012]}, "properties": {"name": "I-240 south of S. Pkwy", "kind": "live", "directions": [{"snapshot": "https://tnsnapshots.com/thumbs/R4_088.flv.png", "video": "https://mcleansfs1.us-east-1.skyvdn.com:443/rtplive/R4_088/playlist.m3u8", "label": ""}], "roadway": "I-240", "county": "Memphis"}}, {"type": "Feature", "geometry": {"type": "Point", "coordinates": [-90.0252667, 35.08921667]}, "properties": {"name": "I-240 north of Norris", "kind": "live", "directions": [{"snapshot": "https://tnsnapshots.com/thumbs/R4_089.flv.png", "video": "https://mcleansfs1.us-east-1.skyvdn.com:443/rtplive/R4_089/playlist.m3u8", "label": ""}], "roadway": "I-240", "county": "Memphis"}}, {"type": "Feature", "geometry": {"type": "Point", "coordinates": [-90.0257833, 35.08325]}, "properties": {"name": "I-240 north I-55 Jct.", "kind": "live", "directions": [{"snapshot": "https://tnsnapshots.com/thumbs/R4_090.flv.png", "video": "https://mcleansfs1.us-east-1.skyvdn.com:443/rtplive/R4_090/playlist.m3u8", "label": ""}], "roadway": "I-240", "county": "Memphis"}}, {"type": "Feature", "geometry": {"type": "Point", "coordinates": [-85.104732, 35.076269]}, "properties": {"name": "I-75 North of Volkswagen Drive", "kind": "live", "directions": [{"snapshot": "https://tnsnapshots.com/thumbs/R2_046.flv.png", "video": "https://mcleansfs1.us-east-1.skyvdn.com:443/rtplive/R2_046/playlist.m3u8", "label": ""}], "roadway": "I-75", "county": "Chattanooga"}}, {"type": "Feature", "geometry": {"type": "Point", "coordinates": [-86.65176, 36.51443]}, "properties": {"name": "I-65 N/O Horseshoe Rd @ MM 111.6 (R3-262)", "kind": "live", "directions": [{"snapshot": "https://tnsnapshots.com/thumbs/R3_262.flv.png", "video": "https://mcleansfs1.us-east-1.skyvdn.com:443/rtplive/R3_262/playlist.m3u8", "label": ""}], "roadway": "I-65", "county": "Nashville"}}, {"type": "Feature", "geometry": {"type": "Point", "coordinates": [-86.6424, 36.52804]}, "properties": {"name": "I-65 @ SR25 @ MM112.7 (R3-263)", "kind": "live", "directions": [{"snapshot": "https://tnsnapshots.com/thumbs/R3_263.flv.png", "video": "https://mcleansfs1.us-east-1.skyvdn.com:443/rtplive/R3_263/playlist.m3u8", "label": ""}], "roadway": "I-65", "county": "Nashville"}}, {"type": "Feature", "geometry": {"type": "Point", "coordinates": [-86.63782, 36.54169]}, "properties": {"name": "I-65 S/O Guthrie CT @ MM113.6 (R3-264)", "kind": "live", "directions": [{"snapshot": "https://tnsnapshots.com/thumbs/R3_264.flv.png", "video": "https://mcleansfs1.us-east-1.skyvdn.com:443/rtplive/R3_264/playlist.m3u8", "label": ""}], "roadway": "I-65", "county": "Nashville"}}, {"type": "Feature", "geometry": {"type": "Point", "coordinates": [-86.62887, 36.55439]}, "properties": {"name": "I-65 S/O Cedar Grove RD @ MM114.6 (R3_265)", "kind": "live", "directions": [{"snapshot": "https://tnsnapshots.com/thumbs/R3_265.flv.png", "video": "https://mcleansfs1.us-east-1.skyvdn.com:443/rtplive/R3_265/playlist.m3u8", "label": ""}], "roadway": "I-65", "county": "Nashville"}}, {"type": "Feature", "geometry": {"type": "Point", "coordinates": [-86.62132, 36.56732]}, "properties": {"name": "I-65 N/O Cedar Grove RD @ MM115.6 (R3_266)", "kind": "live", "directions": [{"snapshot": "https://tnsnapshots.com/thumbs/R3_266.flv.png", "video": "https://mcleansfs1.us-east-1.skyvdn.com:443/rtplive/R3_266/playlist.m3u8", "label": ""}], "roadway": "I-65", "county": "Nashville"}}, {"type": "Feature", "geometry": {"type": "Point", "coordinates": [-86.61301, 36.58006]}, "properties": {"name": "I-65 S/O Red River @ MM116.6 (R3_267)", "kind": "live", "directions": [{"snapshot": "https://tnsnapshots.com/thumbs/R3_267.flv.png", "video": "https://mcleansfs1.us-east-1.skyvdn.com:443/rtplive/R3_267/playlist.m3u8", "label": ""}], "roadway": "I-65", "county": "Nashville"}}, {"type": "Feature", "geometry": {"type": "Point", "coordinates": [-86.60807, 36.58656]}, "properties": {"name": "I-65 N/O Red River @ MM117.1 (R3_268)", "kind": "live", "directions": [{"snapshot": "https://tnsnapshots.com/thumbs/R3_268.flv.png", "video": "https://mcleansfs1.us-east-1.skyvdn.com:443/rtplive/R3_268/playlist.m3u8", "label": ""}], "roadway": "I-65", "county": "Nashville"}}, {"type": "Feature", "geometry": {"type": "Point", "coordinates": [-86.59954, 36.59122]}, "properties": {"name": "I-65 @ SR52 @ MM117.7 (R3_269)", "kind": "live", "directions": [{"snapshot": "https://tnsnapshots.com/thumbs/R3_269.flv.png", "video": "https://mcleansfs1.us-east-1.skyvdn.com:443/rtplive/R3_269/playlist.m3u8", "label": ""}], "roadway": "I-65", "county": "Nashville"}}, {"type": "Feature", "geometry": {"type": "Point", "coordinates": [-86.58672, 36.60184]}, "properties": {"name": "I-65 @ Byrum Chapel Rd @MM118.7 (R3_270)", "kind": "live", "directions": [{"snapshot": "https://tnsnapshots.com/thumbs/R3_270.flv.png", "video": "https://mcleansfs1.us-east-1.skyvdn.com:443/rtplive/R3_270/playlist.m3u8", "label": ""}], "roadway": "I-65", "county": "Nashville"}}, {"type": "Feature", "geometry": {"type": "Point", "coordinates": [-86.57976, 36.61278]}, "properties": {"name": "I-65 S/O Highland Rd @ MM119.5 (R3_271)", "kind": "live", "directions": [{"snapshot": "https://tnsnapshots.com/thumbs/R3_271.flv.png", "video": "https://mcleansfs1.us-east-1.skyvdn.com:443/rtplive/R3_271/playlist.m3u8", "label": ""}], "roadway": "I-65", "county": "Nashville"}}, {"type": "Feature", "geometry": {"type": "Point", "coordinates": [-86.57353, 36.63039]}, "properties": {"name": "I-65 N SR109 @ MM120.8 (R3_272)", "kind": "live", "directions": [{"snapshot": "https://tnsnapshots.com/thumbs/R3_272.flv.png", "video": "https://mcleansfs1.us-east-1.skyvdn.com:443/rtplive/R3_272/playlist.m3u8", "label": ""}], "roadway": "I-65", "county": "Nashville"}}, {"type": "Feature", "geometry": {"type": "Point", "coordinates": [-87.300882, 36.023418]}, "properties": {"name": "I-40EB Before Hogan Rd (R3-238)", "kind": "live", "directions": [{"snapshot": "https://tnsnapshots.com/thumbs/R3_238.flv.png", "video": "https://mcleansfs1.us-east-1.skyvdn.com:443/rtplive/R3_238/playlist.m3u8", "label": ""}], "roadway": "I-40", "county": "Nashville"}}, {"type": "Feature", "geometry": {"type": "Point", "coordinates": [-87.285217, 36.025067]}, "properties": {"name": "I-40WB Past Hogan Rd (R3-239)", "kind": "live", "directions": [{"snapshot": "https://tnsnapshots.com/thumbs/R3_239.flv.png", "video": "https://mcleansfs1.us-east-1.skyvdn.com:443/rtplive/R3_239/playlist.m3u8", "label": ""}], "roadway": "I-40", "county": "Nashville"}}, {"type": "Feature", "geometry": {"type": "Point", "coordinates": [-87.28511, 36.024083]}, "properties": {"name": "I-40EB Past I-840 (R3-240)", "kind": "live", "directions": [{"snapshot": "https://tnsnapshots.com/thumbs/R3_240.flv.png", "video": "https://mcleansfs1.us-east-1.skyvdn.com:443/rtplive/R3_240/playlist.m3u8", "label": ""}], "roadway": "I-40", "county": "Nashville"}}, {"type": "Feature", "geometry": {"type": "Point", "coordinates": [-87.238229, 36.018622]}, "properties": {"name": "I-40EB Past Spencer Mill Rd (R3-241)", "kind": "live", "directions": [{"snapshot": "https://tnsnapshots.com/thumbs/R3_241.flv.png", "video": "https://mcleansfs1.us-east-1.skyvdn.com:443/rtplive/R3_241/playlist.m3u8", "label": ""}], "roadway": "I-40", "county": "Nashville"}}, {"type": "Feature", "geometry": {"type": "Point", "coordinates": [-87.2275, 36.022648]}, "properties": {"name": "I-40WB Before Deal Rd (R3-242)", "kind": "live", "directions": [{"snapshot": "https://tnsnapshots.com/thumbs/R3_242.flv.png", "video": "https://mcleansfs1.us-east-1.skyvdn.com:443/rtplive/R3_242/playlist.m3u8", "label": ""}], "roadway": "I-40", "county": "Nashville"}}, {"type": "Feature", "geometry": {"type": "Point", "coordinates": [-87.208601, 36.030496]}, "properties": {"name": "I-40WB Past Deal Rd (R3-243)", "kind": "live", "directions": [{"snapshot": "https://tnsnapshots.com/thumbs/R3_243.flv.png", "video": "https://mcleansfs1.us-east-1.skyvdn.com:443/rtplive/R3_243/playlist.m3u8", "label": ""}], "roadway": "I-40", "county": "Nashville"}}, {"type": "Feature", "geometry": {"type": "Point", "coordinates": [-87.197697, 36.026297]}, "properties": {"name": "I-40EB Before Williamson Cty Rd (R3-244)", "kind": "live", "directions": [{"snapshot": "https://tnsnapshots.com/thumbs/R3_244.flv.png", "video": "https://mcleansfs1.us-east-1.skyvdn.com:443/rtplive/R3_244/playlist.m3u8", "label": ""}], "roadway": "I-40", "county": "Nashville"}}, {"type": "Feature", "geometry": {"type": "Point", "coordinates": [-87.180134, 36.025859]}, "properties": {"name": "I-40EB Before Hwy 96 (R-245)", "kind": "live", "directions": [{"snapshot": "https://tnsnapshots.com/thumbs/R3_245.flv.png", "video": "https://mcleansfs1.us-east-1.skyvdn.com:443/rtplive/R3_245/playlist.m3u8", "label": ""}], "roadway": "I-40", "county": "Nashville"}}, {"type": "Feature", "geometry": {"type": "Point", "coordinates": [-87.178794, 36.027062]}, "properties": {"name": "I-40WB @ Hwy 96 (R-246)", "kind": "live", "directions": [{"snapshot": "https://tnsnapshots.com/thumbs/R3_246.flv.png", "video": "https://mcleansfs1.us-east-1.skyvdn.com:443/rtplive/R3_246/playlist.m3u8", "label": ""}], "roadway": "I-40", "county": "Nashville"}}, {"type": "Feature", "geometry": {"type": "Point", "coordinates": [-87.163748, 36.034009]}, "properties": {"name": "I-40EB Past Hwy 96 (R-247)", "kind": "live", "directions": [{"snapshot": "https://tnsnapshots.com/thumbs/R3_247.flv.png", "video": "https://mcleansfs1.us-east-1.skyvdn.com:443/rtplive/R3_247/playlist.m3u8", "label": ""}], "roadway": "I-40", "county": "Nashville"}}, {"type": "Feature", "geometry": {"type": "Point", "coordinates": [-87.16422, 36.034617]}, "properties": {"name": "I-40WB Before Hwy 96 (R3-248)", "kind": "live", "directions": [{"snapshot": "https://tnsnapshots.com/thumbs/R3_248.flv.png", "video": "https://mcleansfs1.us-east-1.skyvdn.com:443/rtplive/R3_248/playlist.m3u8", "label": ""}], "roadway": "I-40", "county": "Nashville"}}, {"type": "Feature", "geometry": {"type": "Point", "coordinates": [-87.14275, 36.048817]}, "properties": {"name": "I-40EB Before Fairview-Kingston Springs Rd (R-249)", "kind": "live", "directions": [{"snapshot": "https://tnsnapshots.com/thumbs/R3_249.flv.png", "video": "https://mcleansfs1.us-east-1.skyvdn.com:443/rtplive/R3_249/playlist.m3u8", "label": ""}], "roadway": "I-40", "county": "Nashville"}}, {"type": "Feature", "geometry": {"type": "Point", "coordinates": [-87.14344, 36.049206]}, "properties": {"name": "I-40WB Past Fairview-Kingston Springs Rd (R3-250)", "kind": "live", "directions": [{"snapshot": "https://tnsnapshots.com/thumbs/R3_250.flv.png", "video": "https://mcleansfs1.us-east-1.skyvdn.com:443/rtplive/R3_250/playlist.m3u8", "label": ""}], "roadway": "I-40", "county": "Nashville"}}, {"type": "Feature", "geometry": {"type": "Point", "coordinates": [-87.127654, 36.067258]}, "properties": {"name": "I-40WB @ Mt.Pleasant Rd (R3-251)", "kind": "live", "directions": [{"snapshot": "https://tnsnapshots.com/thumbs/R3_251.flv.png", "video": "https://mcleansfs1.us-east-1.skyvdn.com:443/rtplive/R3_251/playlist.m3u8", "label": ""}], "roadway": "I-40", "county": "Nashville"}}, {"type": "Feature", "geometry": {"type": "Point", "coordinates": [-87.116499, 36.076937]}, "properties": {"name": "I-40WB Before Mt.Pleasant Rd (R3-252)", "kind": "live", "directions": [{"snapshot": "https://tnsnapshots.com/thumbs/R3_252.flv.png", "video": "https://mcleansfs1.us-east-1.skyvdn.com:443/rtplive/R3_252/playlist.m3u8", "label": ""}], "roadway": "I-40", "county": "Nashville"}}, {"type": "Feature", "geometry": {"type": "Point", "coordinates": [-87.097213, 36.083531]}, "properties": {"name": "I-40EB @ Luyben Hills Rd (R3-253)", "kind": "live", "directions": [{"snapshot": "https://tnsnapshots.com/thumbs/R3_253.flv.png", "video": "https://mcleansfs1.us-east-1.skyvdn.com:443/rtplive/R3_253/playlist.m3u8", "label": ""}], "roadway": "I-40", "county": "Nashville"}}, {"type": "Feature", "geometry": {"type": "Point", "coordinates": [-87.080254, 36.086332]}, "properties": {"name": "I-40EB Past Luyben Hills Rd (R3-254)", "kind": "live", "directions": [{"snapshot": "https://tnsnapshots.com/thumbs/R3_254.flv.png", "video": "https://mcleansfs1.us-east-1.skyvdn.com:443/rtplive/R3_254/playlist.m3u8", "label": ""}], "roadway": "I-40", "county": "Nashville"}}, {"type": "Feature", "geometry": {"type": "Point", "coordinates": [-87.077933, 36.08715]}, "properties": {"name": "I-40WB Before Luyben Hills Rd (R3-255)", "kind": "live", "directions": [{"snapshot": "https://tnsnapshots.com/thumbs/R3_255.flv.png", "video": "https://mcleansfs1.us-east-1.skyvdn.com:443/rtplive/R3_255/playlist.m3u8", "label": ""}], "roadway": "I-40", "county": "Nashville"}}, {"type": "Feature", "geometry": {"type": "Point", "coordinates": [-87.053409, 36.087486]}, "properties": {"name": "I-40WB Before Riverview Rd", "kind": "live", "directions": [{"snapshot": "https://tnsnapshots.com/thumbs/R3_256.flv.png", "video": "https://mcleansfs1.us-east-1.skyvdn.com:443/rtplive/R3_256/playlist.m3u8", "label": ""}], "roadway": "I-40", "county": "Nashville"}}, {"type": "Feature", "geometry": {"type": "Point", "coordinates": [-87.038331, 36.078608]}, "properties": {"name": "I-40 EB before McCrory Ln MM 191.6 (R3-257)", "kind": "live", "directions": [{"snapshot": "https://tnsnapshots.com/thumbs/R3_257.flv.png", "video": "https://mcleansfs1.us-east-1.skyvdn.com:443/rtplive/R3_257/playlist.m3u8", "label": ""}], "roadway": "I-40", "county": "Nashville"}}, {"type": "Feature", "geometry": {"type": "Point", "coordinates": [-87.023874, 36.077159]}, "properties": {"name": "I-40 @ McCrory Ln (R3-258)", "kind": "live", "directions": [{"snapshot": "https://tnsnapshots.com/thumbs/R3_258.flv.png", "video": "https://mcleansfs1.us-east-1.skyvdn.com:443/rtplive/R3_258/playlist.m3u8", "label": ""}], "roadway": "I-40", "county": "Nashville"}}, {"type": "Feature", "geometry": {"type": "Point", "coordinates": [-87.007206, 36.077132]}, "properties": {"name": "I-40EB Past McCrory Ln (R3-259)", "kind": "live", "directions": [{"snapshot": "https://tnsnapshots.com/thumbs/R3_259.flv.png", "video": "https://mcleansfs1.us-east-1.skyvdn.com:443/rtplive/R3_259/playlist.m3u8", "label": ""}], "roadway": "I-40", "county": "Nashville"}}, {"type": "Feature", "geometry": {"type": "Point", "coordinates": [-87.005383, 36.077633]}, "properties": {"name": "I-40WB Before McCrory Ln (R3-260)", "kind": "live", "directions": [{"snapshot": "https://tnsnapshots.com/thumbs/R3_260.flv.png", "video": "https://mcleansfs1.us-east-1.skyvdn.com:443/rtplive/R3_260/playlist.m3u8", "label": ""}], "roadway": "I-40", "county": "Nashville"}}, {"type": "Feature", "geometry": {"type": "Point", "coordinates": [-86.982386, 36.076644]}, "properties": {"name": "I-40WB Past Harpeth River (R3-261)", "kind": "live", "directions": [{"snapshot": "https://tnsnapshots.com/thumbs/R3_261.flv.png", "video": "https://mcleansfs1.us-east-1.skyvdn.com:443/rtplive/R3_261/playlist.m3u8", "label": ""}], "roadway": "I-40", "county": "Nashville"}}, {"type": "Feature", "geometry": {"type": "Point", "coordinates": [-86.613335, 36.008249]}, "properties": {"name": "I-24 WB e/o Old Hickory Boulevard (Antioch) (MM 63.1) (R3-225)", "kind": "live", "directions": [{"snapshot": "https://tnsnapshots.com/thumbs/R3_225.flv.png", "video": "https://mcleansfs1.us-east-1.skyvdn.com:443/rtplive/R3_225/playlist.m3u8", "label": ""}], "roadway": "I-24", "county": "Nashville"}}, {"type": "Feature", "geometry": {"type": "Point", "coordinates": [-84.29588, 35.816599]}, "properties": {"name": "I-75 South @ 80.1 Mile Marker", "kind": "live", "directions": [{"snapshot": "https://tnsnapshots.com/thumbs/R1_090.flv.png", "video": "https://mcleansfs1.us-east-1.skyvdn.com:443/rtplive/R1_090/playlist.m3u8", "label": ""}], "roadway": "", "county": "Knoxville"}}, {"type": "Feature", "geometry": {"type": "Point", "coordinates": [-83.851667, 36.012778]}, "properties": {"name": "I-40 @ Chilhowee Rd", "kind": "live", "directions": [{"snapshot": "https://tnsnapshots.com/thumbs/R1_030.flv.png", "video": "https://mcleansfs3.us-east-1.skyvdn.com:443/rtplive/R1_030/playlist.m3u8", "label": ""}], "roadway": "I-40", "county": "Knoxville"}}, {"type": "Feature", "geometry": {"type": "Point", "coordinates": [-83.841667, 36.010833]}, "properties": {"name": "I-40 @ Asheville Hwy", "kind": "live", "directions": [{"snapshot": "https://tnsnapshots.com/thumbs/R1_031.flv.png", "video": "https://mcleansfs3.us-east-1.skyvdn.com:443/rtplive/R1_031/playlist.m3u8", "label": ""}], "roadway": "I-40", "county": "Knoxville"}}, {"type": "Feature", "geometry": {"type": "Point", "coordinates": [-83.83, 36.0075]}, "properties": {"name": "I-40 @ Holston River", "kind": "live", "directions": [{"snapshot": "https://tnsnapshots.com/thumbs/R1_032.flv.png", "video": "https://mcleansfs3.us-east-1.skyvdn.com:443/rtplive/R1_032/playlist.m3u8", "label": ""}], "roadway": "I-40", "county": "Knoxville"}}, {"type": "Feature", "geometry": {"type": "Point", "coordinates": [-83.97415, 35.96235]}, "properties": {"name": "I-640 @ Middlebrook Pk", "kind": "live", "directions": [{"snapshot": "https://tnsnapshots.com/thumbs/R1_033.flv.png", "video": "https://mcleansfs3.us-east-1.skyvdn.com:443/rtplive/R1_033/playlist.m3u8", "label": ""}], "roadway": "I-640", "county": "Knoxville"}}, {"type": "Feature", "geometry": {"type": "Point", "coordinates": [-83.98, 35.968889]}, "properties": {"name": "I-75/640 @ CSX RR", "kind": "live", "directions": [{"snapshot": "https://tnsnapshots.com/thumbs/R1_034.flv.png", "video": "https://mcleansfs3.us-east-1.skyvdn.com:443/rtplive/R1_034/playlist.m3u8", "label": ""}], "roadway": "I-75", "county": "Knoxville"}}, {"type": "Feature", "geometry": {"type": "Point", "coordinates": [-83.979444, 35.974167]}, "properties": {"name": "I-75/640 @ Western Av", "kind": "live", "directions": [{"snapshot": "https://tnsnapshots.com/thumbs/R1_035.flv.png", "video": "https://mcleansfs3.us-east-1.skyvdn.com:443/rtplive/R1_035/playlist.m3u8", "label": ""}], "roadway": "I-75", "county": "Knoxville"}}, {"type": "Feature", "geometry": {"type": "Point", "coordinates": [-83.979268, 35.981911]}, "properties": {"name": "I-75/640 @ North of Western Ave", "kind": "live", "directions": [{"snapshot": "https://tnsnapshots.com/thumbs/R1_036.flv.png", "video": "https://mcleansfs3.us-east-1.skyvdn.com:443/rtplive/R1_036/playlist.m3u8", "label": ""}], "roadway": "I-75", "county": "Knoxville"}}, {"type": "Feature", "geometry": {"type": "Point", "coordinates": [-83.973055, 35.987777]}, "properties": {"name": "I-75/640 @ Wilson Rd", "kind": "live", "directions": [{"snapshot": "https://tnsnapshots.com/thumbs/R1_037.flv.png", "video": "https://mcleansfs3.us-east-1.skyvdn.com:443/rtplive/R1_037/playlist.m3u8", "label": ""}], "roadway": "I-75", "county": "Knoxville"}}, {"type": "Feature", "geometry": {"type": "Point", "coordinates": [-83.966389, 35.994167]}, "properties": {"name": "I-75/640 @ Gap Rd", "kind": "live", "directions": [{"snapshot": "https://tnsnapshots.com/thumbs/R1_038.flv.png", "video": "https://mcleansfs3.us-east-1.skyvdn.com:443/rtplive/R1_038/playlist.m3u8", "label": ""}], "roadway": "I-75", "county": "Knoxville"}}, {"type": "Feature", "geometry": {"type": "Point", "coordinates": [-83.960278, 35.998333]}, "properties": {"name": "I-75/640 @ Clinton Hwy", "kind": "live", "directions": [{"snapshot": "https://tnsnapshots.com/thumbs/R1_039.flv.png", "video": "https://mcleansfs3.us-east-1.skyvdn.com:443/rtplive/R1_039/playlist.m3u8", "label": ""}], "roadway": "I-75", "county": "Knoxville"}}, {"type": "Feature", "geometry": {"type": "Point", "coordinates": [-84.275763, 35.87061]}, "properties": {"name": "I-40 @ 366.8 Mile Marker", "kind": "live", "directions": [{"snapshot": "https://tnsnapshots.com/thumbs/R1_079.flv.png", "video": "https://mcleansfs3.us-east-1.skyvdn.com:443/rtplive/R1_079/playlist.m3u8", "label": ""}], "roadway": "I-40", "county": "Knoxville"}}, {"type": "Feature", "geometry": {"type": "Point", "coordinates": [-84.256012, 35.869472]}, "properties": {"name": "I-75 @ 84.6 Mile Marker", "kind": "live", "directions": [{"snapshot": "https://tnsnapshots.com/thumbs/R1_080.flv.png", "video": "https://mcleansfs3.us-east-1.skyvdn.com:443/rtplive/R1_080/playlist.m3u8", "label": ""}], "roadway": "I-75", "county": "Knoxville"}}, {"type": "Feature", "geometry": {"type": "Point", "coordinates": [-84.237488, 35.878426]}, "properties": {"name": "I-40 @ 369.2 Mile Marker", "kind": "live", "directions": [{"snapshot": "https://tnsnapshots.com/thumbs/R1_082.flv.png", "video": "https://mcleansfs3.us-east-1.skyvdn.com:443/rtplive/R1_082/playlist.m3u8", "label": ""}], "roadway": "I-40", "county": "Knoxville"}}, {"type": "Feature", "geometry": {"type": "Point", "coordinates": [-84.25868, 35.860055]}, "properties": {"name": "I-75 @ 83.9 Mile Marker", "kind": "live", "directions": [{"snapshot": "https://tnsnapshots.com/thumbs/R1_093.flv.png", "video": "https://mcleansfs3.us-east-1.skyvdn.com:443/rtplive/R1_093/playlist.m3u8", "label": ""}], "roadway": "I-75", "county": "Knoxville"}}, {"type": "Feature", "geometry": {"type": "Point", "coordinates": [-83.6336, 35.98372]}, "properties": {"name": "I-40 @ 406.0 Mile Marker", "kind": "live", "directions": [{"snapshot": "https://tnsnapshots.com/thumbs/R1_111.flv.png", "video": "https://mcleansfs3.us-east-1.skyvdn.com:443/rtplive/R1_111/playlist.m3u8", "label": ""}], "roadway": "I-40", "county": "Knoxville"}}, {"type": "Feature", "geometry": {"type": "Point", "coordinates": [-83.993211, 35.793171]}, "properties": {"name": "SR-115 @ 14.4 Mile Marker", "kind": "live", "directions": [{"snapshot": "https://tnsnapshots.com/thumbs/R1_206.flv.png", "video": "https://mcleansfs3.us-east-1.skyvdn.com:443/rtplive/R1_206/playlist.m3u8", "label": ""}], "roadway": "SR-115", "county": "Knoxville"}}, {"type": "Feature", "geometry": {"type": "Point", "coordinates": [-83.959989, 35.856708]}, "properties": {"name": "SR-115 @ 19.2 Mile Marker", "kind": "live", "directions": [{"snapshot": "https://tnsnapshots.com/thumbs/R1_209.flv.png", "video": "https://mcleansfs3.us-east-1.skyvdn.com:443/rtplive/R1_209/playlist.m3u8", "label": ""}], "roadway": "SR-115", "county": "Knoxville"}}, {"type": "Feature", "geometry": {"type": "Point", "coordinates": [-83.959389, 35.866484]}, "properties": {"name": "SR-115 @ 19.9 Mile Marker", "kind": "live", "directions": [{"snapshot": "https://tnsnapshots.com/thumbs/R1_210.flv.png", "video": "https://mcleansfs3.us-east-1.skyvdn.com:443/rtplive/R1_210/playlist.m3u8", "label": ""}], "roadway": "SR-115", "county": "Knoxville"}}, {"type": "Feature", "geometry": {"type": "Point", "coordinates": [-85.32471636, 35.02389962]}, "properties": {"name": "I-24 East of Moccasin Bend", "kind": "live", "directions": [{"snapshot": "https://tnsnapshots.com/thumbs/R2_011.flv.png", "video": "https://mcleansfs3.us-east-1.skyvdn.com:443/rtplive/R2_011/playlist.m3u8", "label": ""}], "roadway": "I-24", "county": "Chattanooga"}}, {"type": "Feature", "geometry": {"type": "Point", "coordinates": [-85.319428, 35.032443]}, "properties": {"name": "I-24 @ US-27 Junction", "kind": "live", "directions": [{"snapshot": "https://tnsnapshots.com/thumbs/R2_012.flv.png", "video": "https://mcleansfs3.us-east-1.skyvdn.com:443/rtplive/R2_012/playlist.m3u8", "label": ""}], "roadway": "I-24", "county": "Chattanooga"}}, {"type": "Feature", "geometry": {"type": "Point", "coordinates": [-85.30309998, 35.02605009]}, "properties": {"name": "I-24 East of Market St.", "kind": "live", "directions": [{"snapshot": "https://tnsnapshots.com/thumbs/R2_013.flv.png", "video": "https://mcleansfs3.us-east-1.skyvdn.com:443/rtplive/R2_013/playlist.m3u8", "label": ""}], "roadway": "I-24", "county": "Chattanooga"}}, {"type": "Feature", "geometry": {"type": "Point", "coordinates": [-85.29402837, 35.01847516]}, "properties": {"name": "I-24 @ Rossville Blvd", "kind": "live", "directions": [{"snapshot": "https://tnsnapshots.com/thumbs/R2_014.flv.png", "video": "https://mcleansfs3.us-east-1.skyvdn.com:443/rtplive/R2_014/playlist.m3u8", "label": ""}], "roadway": "I-24", "county": "Chattanooga"}}, {"type": "Feature", "geometry": {"type": "Point", "coordinates": [-85.27140012, 35.01458358]}, "properties": {"name": "I-24 @ Westside Dr", "kind": "live", "directions": [{"snapshot": "https://tnsnapshots.com/thumbs/R2_015.flv.png", "video": "https://mcleansfs3.us-east-1.skyvdn.com:443/rtplive/R2_015/playlist.m3u8", "label": ""}], "roadway": "I-24", "county": "Chattanooga"}}, {"type": "Feature", "geometry": {"type": "Point", "coordinates": [-85.26855965, 35.0181895]}, "properties": {"name": "I-24 @ Old Ringgold Rd overpass", "kind": "live", "directions": [{"snapshot": "https://tnsnapshots.com/thumbs/R2_016.flv.png", "video": "https://mcleansfs3.us-east-1.skyvdn.com:443/rtplive/R2_016/playlist.m3u8", "label": ""}], "roadway": "I-24", "county": "Chattanooga"}}, {"type": "Feature", "geometry": {"type": "Point", "coordinates": [-85.26286663, 35.02143331]}, "properties": {"name": "I-24 West of Seminole Drive", "kind": "live", "directions": [{"snapshot": "https://tnsnapshots.com/thumbs/R2_017.flv.png", "video": "https://mcleansfs3.us-east-1.skyvdn.com:443/rtplive/R2_017/playlist.m3u8", "label": ""}], "roadway": "I-24", "county": "Chattanooga"}}, {"type": "Feature", "geometry": {"type": "Point", "coordinates": [-85.25988332, 35.02066687]}, "properties": {"name": "I-24 @ Seminole Drive", "kind": "live", "directions": [{"snapshot": "https://tnsnapshots.com/thumbs/R2_018.flv.png", "video": "https://mcleansfs3.us-east-1.skyvdn.com:443/rtplive/R2_018/playlist.m3u8", "label": ""}], "roadway": "I-24", "county": "Chattanooga"}}, {"type": "Feature", "geometry": {"type": "Point", "coordinates": [-85.25091632, 35.01358379]}, "properties": {"name": "I-24 @ Germantown Rd", "kind": "live", "directions": [{"snapshot": "https://tnsnapshots.com/thumbs/R2_019.flv.png", "video": "https://mcleansfs3.us-east-1.skyvdn.com:443/rtplive/R2_019/playlist.m3u8", "label": ""}], "roadway": "I-24", "county": "Chattanooga"}}, {"type": "Feature", "geometry": {"type": "Point", "coordinates": [-85.23653289, 35.00808288]}, "properties": {"name": "I-24 @ S Moore Rd", "kind": "live", "directions": [{"snapshot": "https://tnsnapshots.com/thumbs/R2_020.flv.png", "video": "https://mcleansfs3.us-east-1.skyvdn.com:443/rtplive/R2_020/playlist.m3u8", "label": ""}], "roadway": "I-24", "county": "Chattanooga"}}, {"type": "Feature", "geometry": {"type": "Point", "coordinates": [-85.22556628, 35.09478375]}, "properties": {"name": "Hwy 153 South of Chickamauga Dam", "kind": "live", "directions": [{"snapshot": "https://tnsnapshots.com/thumbs/R2_061.flv.png", "video": "https://mcleansfs3.us-east-1.skyvdn.com:443/rtplive/R2_061/playlist.m3u8", "label": ""}], "roadway": "153", "county": "Chattanooga"}}, {"type": "Feature", "geometry": {"type": "Point", "coordinates": [-85.22916717, 35.11006639]}, "properties": {"name": "Hwy 153 North of Chickamauga Dam", "kind": "live", "directions": [{"snapshot": "https://tnsnapshots.com/thumbs/R2_062.flv.png", "video": "https://mcleansfs3.us-east-1.skyvdn.com:443/rtplive/R2_062/playlist.m3u8", "label": ""}], "roadway": "153", "county": "Chattanooga"}}, {"type": "Feature", "geometry": {"type": "Point", "coordinates": [-85.23079964, 35.11486622]}, "properties": {"name": "Hwy 153 South of Dupont Parkway", "kind": "live", "directions": [{"snapshot": "https://tnsnapshots.com/thumbs/R2_063.flv.png", "video": "https://mcleansfs3.us-east-1.skyvdn.com:443/rtplive/R2_063/playlist.m3u8", "label": ""}], "roadway": "153", "county": "Chattanooga"}}, {"type": "Feature", "geometry": {"type": "Point", "coordinates": [-85.23816636, 35.12096661]}, "properties": {"name": "Hwy 153 @ Dupont Parkway", "kind": "live", "directions": [{"snapshot": "https://tnsnapshots.com/thumbs/R2_064.flv.png", "video": "https://mcleansfs3.us-east-1.skyvdn.com:443/rtplive/R2_064/playlist.m3u8", "label": ""}], "roadway": "153", "county": "Chattanooga"}}, {"type": "Feature", "geometry": {"type": "Point", "coordinates": [-85.24494971, 35.13105009]}, "properties": {"name": "Hwy 153 @ Hixson Pike", "kind": "live", "directions": [{"snapshot": "https://tnsnapshots.com/thumbs/R2_065.flv.png", "video": "https://mcleansfs3.us-east-1.skyvdn.com:443/rtplive/R2_065/playlist.m3u8", "label": ""}], "roadway": "153", "county": "Chattanooga"}}, {"type": "Feature", "geometry": {"type": "Point", "coordinates": [-85.24935023, 35.14513378]}, "properties": {"name": "Hwy 153 North of Gadd Rd", "kind": "live", "directions": [{"snapshot": "https://tnsnapshots.com/thumbs/R2_066.flv.png", "video": "https://mcleansfs3.us-east-1.skyvdn.com:443/rtplive/R2_066/playlist.m3u8", "label": ""}], "roadway": "153", "county": "Chattanooga"}}, {"type": "Feature", "geometry": {"type": "Point", "coordinates": [-85.24843291, 35.15706699]}, "properties": {"name": "Hwy 153 @ Grubb Rd", "kind": "live", "directions": [{"snapshot": "https://tnsnapshots.com/thumbs/R2_067.flv.png", "video": "https://mcleansfs3.us-east-1.skyvdn.com:443/rtplive/R2_067/playlist.m3u8", "label": ""}], "roadway": "153", "county": "Chattanooga"}}, {"type": "Feature", "geometry": {"type": "Point", "coordinates": [-85.24756689, 35.16878294]}, "properties": {"name": "Hwy 153 @ Pine Marr Dr", "kind": "live", "directions": [{"snapshot": "https://tnsnapshots.com/thumbs/R2_068.flv.png", "video": "https://mcleansfs3.us-east-1.skyvdn.com:443/rtplive/R2_068/playlist.m3u8", "label": ""}], "roadway": "153", "county": "Chattanooga"}}, {"type": "Feature", "geometry": {"type": "Point", "coordinates": [-85.24718366, 35.1779833]}, "properties": {"name": "Hwy 153 @ Dayton Blvd", "kind": "live", "directions": [{"snapshot": "https://tnsnapshots.com/thumbs/R2_069.flv.png", "video": "https://mcleansfs3.us-east-1.skyvdn.com:443/rtplive/R2_069/playlist.m3u8", "label": ""}], "roadway": "153", "county": "Chattanooga"}}, {"type": "Feature", "geometry": {"type": "Point", "coordinates": [-85.24586703, 35.18806679]}, "properties": {"name": "Hwy 153 @ US-27", "kind": "live", "directions": [{"snapshot": "https://tnsnapshots.com/thumbs/R2_070.flv.png", "video": "https://mcleansfs3.us-east-1.skyvdn.com:443/rtplive/R2_070/playlist.m3u8", "label": ""}], "roadway": "153", "county": "Chattanooga"}}, {"type": "Feature", "geometry": {"type": "Point", "coordinates": [-84.785885, 35.3234667]}, "properties": {"name": "I-75 South of State Route 163", "kind": "live", "directions": [{"snapshot": "https://tnsnapshots.com/thumbs/R2_105.flv.png", "video": "https://mcleansfs3.us-east-1.skyvdn.com:443/rtplive/R2_105/playlist.m3u8", "label": ""}], "roadway": "I-75", "county": "Chattanooga"}}, {"type": "Feature", "geometry": {"type": "Point", "coordinates": [-84.76939, 35.3266983]}, "properties": {"name": "I-75 South of Hwy 28", "kind": "live", "directions": [{"snapshot": "https://tnsnapshots.com/thumbs/R2_106.flv.png", "video": "https://mcleansfs3.us-east-1.skyvdn.com:443/rtplive/R2_106/playlist.m3u8", "label": ""}], "roadway": "I-75", "county": "Chattanooga"}}, {"type": "Feature", "geometry": {"type": "Point", "coordinates": [-84.7588833, 35.3318133]}, "properties": {"name": "I-75 North of Hwy 28", "kind": "live", "directions": [{"snapshot": "https://tnsnapshots.com/thumbs/R2_107.flv.png", "video": "https://mcleansfs3.us-east-1.skyvdn.com:443/rtplive/R2_107/playlist.m3u8", "label": ""}], "roadway": "I-75", "county": "Chattanooga"}}, {"type": "Feature", "geometry": {"type": "Point", "coordinates": [-84.8429467, 35.2449633]}, "properties": {"name": "I-75 @ Fog Advisory Beacon", "kind": "live", "directions": [{"snapshot": "https://tnsnapshots.com/thumbs/R2_108.flv.png", "video": "https://mcleansfs3.us-east-1.skyvdn.com:443/rtplive/R2_108/playlist.m3u8", "label": ""}], "roadway": "I-75", "county": "Chattanooga"}}, {"type": "Feature", "geometry": {"type": "Point", "coordinates": [-86.703617, 36.308739]}, "properties": {"name": "I-65 NB @ Rivergate Parkway (MM 95.87) (R3-021)", "kind": "live", "directions": [{"snapshot": "https://tnsnapshots.com/thumbs/R3_021.flv.png", "video": "https://mcleansfs3.us-east-1.skyvdn.com:443/rtplive/R3_021/playlist.m3u8", "label": ""}], "roadway": "I-65", "county": "Nashville"}}, {"type": "Feature", "geometry": {"type": "Point", "coordinates": [-86.69515, 36.30778]}, "properties": {"name": "Vietnam Veterans WB @ Conference Drive (MM 1.09) (R3_023)", "kind": "live", "directions": [{"snapshot": "https://tnsnapshots.com/thumbs/R3_023.flv.png", "video": "https://mcleansfs3.us-east-1.skyvdn.com:443/rtplive/R3_023/playlist.m3u8", "label": ""}], "roadway": "Vietnam Veterans", "county": "Nashville"}}, {"type": "Feature", "geometry": {"type": "Point", "coordinates": [-86.76892, 36.15021]}, "properties": {"name": "I-40 EB  w/o 2nd/4th Avenue (MM 210.26) (R3-024)", "kind": "live", "directions": [{"snapshot": "https://tnsnapshots.com/thumbs/R3_024.flv.png", "video": "https://mcleansfs3.us-east-1.skyvdn.com:443/rtplive/R3_024/playlist.m3u8", "label": ""}], "roadway": "I-40", "county": "Nashville"}}, {"type": "Feature", "geometry": {"type": "Point", "coordinates": [-86.77821, 36.14757]}, "properties": {"name": "I-65 SB @ I-40 South Loop ((no effective MM)) (R3-025)", "kind": "live", "directions": [{"snapshot": "https://tnsnapshots.com/thumbs/R3_025.flv.png", "video": "https://mcleansfs3.us-east-1.skyvdn.com:443/rtplive/R3_025/playlist.m3u8", "label": ""}], "roadway": "I-65", "county": "Nashville"}}, {"type": "Feature", "geometry": {"type": "Point", "coordinates": [-86.78778, 36.15234]}, "properties": {"name": "I-40 EB e/o Broadway (MM 209.31) (R3-026)", "kind": "live", "directions": [{"snapshot": "https://tnsnapshots.com/thumbs/R3_026.flv.png", "video": "https://mcleansfs3.us-east-1.skyvdn.com:443/rtplive/R3_026/playlist.m3u8", "label": ""}], "roadway": "I-40", "county": "Nashville"}}, {"type": "Feature", "geometry": {"type": "Point", "coordinates": [-86.79311, 36.15916]}, "properties": {"name": "I-40 EB w/o Church Street (MM 208.76) (R3-027)", "kind": "live", "directions": [{"snapshot": "https://tnsnapshots.com/thumbs/R3_027.flv.png", "video": "https://mcleansfs3.us-east-1.skyvdn.com:443/rtplive/R3_027/playlist.m3u8", "label": ""}], "roadway": "I-40", "county": "Nashville"}}, {"type": "Feature", "geometry": {"type": "Point", "coordinates": [-86.79633, 36.16763]}, "properties": {"name": "I-40 EB West of Charlotte Avenue (MM 208.17) (R3-028)", "kind": "live", "directions": [{"snapshot": "https://tnsnapshots.com/thumbs/R3_028.flv.png", "video": "https://mcleansfs3.us-east-1.skyvdn.com:443/rtplive/R3_028/playlist.m3u8", "label": ""}], "roadway": "I-40", "county": "Nashville"}}, {"type": "Feature", "geometry": {"type": "Point", "coordinates": [-86.82379, 36.15626]}, "properties": {"name": "I-440 EB @ I-40 ((no effective MM)) (R3-029)", "kind": "live", "directions": [{"snapshot": "https://tnsnapshots.com/thumbs/R3_029.flv.png", "video": "https://mcleansfs3.us-east-1.skyvdn.com:443/rtplive/R3_029/playlist.m3u8", "label": ""}], "roadway": "I-440", "county": "Nashville"}}, {"type": "Feature", "geometry": {"type": "Point", "coordinates": [-86.81732, 36.16674]}, "properties": {"name": "I-40 WB w/o Jefferson Street (MM 206.93) (R3-030)", "kind": "live", "directions": [{"snapshot": "https://tnsnapshots.com/thumbs/R3_030.flv.png", "video": "https://mcleansfs3.us-east-1.skyvdn.com:443/rtplive/R3_030/playlist.m3u8", "label": ""}], "roadway": "I-40", "county": "Nashville"}}, {"type": "Feature", "geometry": {"type": "Point", "coordinates": [-86.76314, 36.12185]}, "properties": {"name": "I-440 WB  e/o I-65 (MM 5.58) (R3-071)", "kind": "live", "directions": [{"snapshot": "https://tnsnapshots.com/thumbs/R3_071.flv.png", "video": "https://mcleansfs3.us-east-1.skyvdn.com:443/rtplive/R3_071/playlist.m3u8", "label": ""}], "roadway": "I-440", "county": "Nashville"}}, {"type": "Feature", "geometry": {"type": "Point", "coordinates": [-86.75112, 36.12329]}, "properties": {"name": "I-440 WB @ Nolensville Pike (MM 6.28) (R3-072)", "kind": "live", "directions": [{"snapshot": "https://tnsnapshots.com/thumbs/R3_072.flv.png", "video": "https://mcleansfs3.us-east-1.skyvdn.com:443/rtplive/R3_072/playlist.m3u8", "label": ""}], "roadway": "I-440", "county": "Nashville"}}, {"type": "Feature", "geometry": {"type": "Point", "coordinates": [-86.74052, 36.12416]}, "properties": {"name": "I-440 EB w/o I-24 (MM 6.91) (R3-073)", "kind": "live", "directions": [{"snapshot": "https://tnsnapshots.com/thumbs/R3_073.flv.png", "video": "https://mcleansfs3.us-east-1.skyvdn.com:443/rtplive/R3_073/playlist.m3u8", "label": ""}], "roadway": "I-440", "county": "Nashville"}}, {"type": "Feature", "geometry": {"type": "Point", "coordinates": [-86.83903, 36.15374]}, "properties": {"name": "I-40 EB @ 46th Avenue (MM 205.00) (R3-074)", "kind": "live", "directions": [{"snapshot": "https://tnsnapshots.com/thumbs/R3_074.flv.png", "video": "https://mcleansfs3.us-east-1.skyvdn.com:443/rtplive/R3_074/playlist.m3u8", "label": ""}], "roadway": "I-40", "county": "Nashville"}}, {"type": "Feature", "geometry": {"type": "Point", "coordinates": [-86.81933, 36.16448]}, "properties": {"name": "I-40 WB  @ 28th Avenue (MM 206.60) (R3-075)", "kind": "live", "directions": [{"snapshot": "https://tnsnapshots.com/thumbs/R3_075.flv.png", "video": "https://mcleansfs3.us-east-1.skyvdn.com:443/rtplive/R3_075/playlist.m3u8", "label": ""}], "roadway": "I-40", "county": "Nashville"}}, {"type": "Feature", "geometry": {"type": "Point", "coordinates": [-86.76212, 36.09402]}, "properties": {"name": "I-65 NB s/o Armory Drive (MM 78.60) (R3-076)", "kind": "live", "directions": [{"snapshot": "https://tnsnapshots.com/thumbs/R3_076.flv.png", "video": "https://mcleansfs3.us-east-1.skyvdn.com:443/rtplive/R3_076/playlist.m3u8", "label": ""}], "roadway": "I-65", "county": "Nashville"}}, {"type": "Feature", "geometry": {"type": "Point", "coordinates": [-86.76458, 36.1019]}, "properties": {"name": "I-65 NB @ Armory Drive (MM 79.15) (R3-077)", "kind": "live", "directions": [{"snapshot": "https://tnsnapshots.com/thumbs/R3_077.flv.png", "video": "https://mcleansfs3.us-east-1.skyvdn.com:443/rtplive/R3_077/playlist.m3u8", "label": ""}], "roadway": "I-65", "county": "Nashville"}}, {"type": "Feature", "geometry": {"type": "Point", "coordinates": [-86.77231, 36.12623]}, "properties": {"name": "I-65 NB @ Craighead (MM 80.96) (R3-078)", "kind": "live", "directions": [{"snapshot": "https://tnsnapshots.com/thumbs/R3_078.flv.png", "video": "https://mcleansfs3.us-east-1.skyvdn.com:443/rtplive/R3_078/playlist.m3u8", "label": ""}], "roadway": "I-65", "county": "Nashville"}}, {"type": "Feature", "geometry": {"type": "Point", "coordinates": [-86.77555, 36.13889]}, "properties": {"name": "I-65 NB  n/o Wedgewood (MM 81.86) (R3-079)", "kind": "live", "directions": [{"snapshot": "https://tnsnapshots.com/thumbs/R3_079.flv.png", "video": "https://mcleansfs3.us-east-1.skyvdn.com:443/rtplive/R3_079/playlist.m3u8", "label": ""}], "roadway": "I-65", "county": "Nashville"}}, {"type": "Feature", "geometry": {"type": "Point", "coordinates": [-86.73182, 36.14043]}, "properties": {"name": "I-40 EB @ Arlington Overpass (MM 212.79) (R3-080)", "kind": "live", "directions": [{"snapshot": "https://tnsnapshots.com/thumbs/R3_080.flv.png", "video": "https://mcleansfs3.us-east-1.skyvdn.com:443/rtplive/R3_080/playlist.m3u8", "label": ""}], "roadway": "I-40", "county": "Nashville"}}, {"type": "Feature", "geometry": {"type": "Point", "coordinates": [-86.86987, 36.1681]}, "properties": {"name": "Briley Pkwy SB @ Centennial Boulevard (MM 26.78) (R3-121)", "kind": "live", "directions": [{"snapshot": "https://tnsnapshots.com/thumbs/R3_121.flv.png", "video": "https://mcleansfs3.us-east-1.skyvdn.com:443/rtplive/R3_121/playlist.m3u8", "label": ""}], "roadway": "Briley Pkwy", "county": "Nashville"}}, {"type": "Feature", "geometry": {"type": "Point", "coordinates": [-86.8706, 36.17833]}, "properties": {"name": "Briley Pkwy SB n/o Centennial Boulevard  (MM 26.06) (R3-122)", "kind": "live", "directions": [{"snapshot": "https://tnsnapshots.com/thumbs/R3_122.flv.png", "video": "https://mcleansfs3.us-east-1.skyvdn.com:443/rtplive/R3_122/playlist.m3u8", "label": ""}], "roadway": "Briley Pkwy", "county": "Nashville"}}, {"type": "Feature", "geometry": {"type": "Point", "coordinates": [-86.86252, 36.18633]}, "properties": {"name": "Briley Pkwy NB @ County Hospital Road (MM 25.34) (R3-123)", "kind": "live", "directions": [{"snapshot": "https://tnsnapshots.com/thumbs/R3_123.flv.png", "video": "https://mcleansfs3.us-east-1.skyvdn.com:443/rtplive/R3_123/playlist.m3u8", "label": ""}], "roadway": "Briley Pkwy", "county": "Nashville"}}, {"type": "Feature", "geometry": {"type": "Point", "coordinates": [-86.86742, 36.19798]}, "properties": {"name": "Briley Pkwy SB s/o Ashland City Highway (MM 24.49) (R3-124)", "kind": "live", "directions": [{"snapshot": "https://tnsnapshots.com/thumbs/R3_124.flv.png", "video": "https://mcleansfs3.us-east-1.skyvdn.com:443/rtplive/R3_124/playlist.m3u8", "label": ""}], "roadway": "Briley Pkwy", "county": "Nashville"}}, {"type": "Feature", "geometry": {"type": "Point", "coordinates": [-86.87245, 36.21087]}, "properties": {"name": "Briley Pkwy SB @ Ashland City Highway (MM 23.58) (R3-125)", "kind": "live", "directions": [{"snapshot": "https://tnsnapshots.com/thumbs/R3_125.flv.png", "video": "https://mcleansfs3.us-east-1.skyvdn.com:443/rtplive/R3_125/playlist.m3u8", "label": ""}], "roadway": "Briley Pkwy", "county": "Nashville"}}, {"type": "Feature", "geometry": {"type": "Point", "coordinates": [-86.87085, 36.22218]}, "properties": {"name": "Briley Pkwy SB n/o Ashland City Highway (MM 22.77) (R3-126)", "kind": "live", "directions": [{"snapshot": "https://tnsnapshots.com/thumbs/R3_126.flv.png", "video": "https://mcleansfs3.us-east-1.skyvdn.com:443/rtplive/R3_126/playlist.m3u8", "label": ""}], "roadway": "Briley Pkwy", "county": "Nashville"}}, {"type": "Feature", "geometry": {"type": "Point", "coordinates": [-86.8588, 36.22815]}, "properties": {"name": "Briley Pkwy WB e/o Eatons Creek (MM 21.99) (R3-127)", "kind": "live", "directions": [{"snapshot": "https://tnsnapshots.com/thumbs/R3_127.flv.png", "video": "https://mcleansfs3.us-east-1.skyvdn.com:443/rtplive/R3_127/playlist.m3u8", "label": ""}], "roadway": "Briley Pkwy", "county": "Nashville"}}, {"type": "Feature", "geometry": {"type": "Point", "coordinates": [-86.84657, 36.2279]}, "properties": {"name": "Briley Pkwy EB w/o Clarksville Pike  (MM 21.31) (R3-128)", "kind": "live", "directions": [{"snapshot": "https://tnsnapshots.com/thumbs/R3_128.flv.png", "video": "https://mcleansfs3.us-east-1.skyvdn.com:443/rtplive/R3_128/playlist.m3u8", "label": ""}], "roadway": "Briley Pkwy", "county": "Nashville"}}, {"type": "Feature", "geometry": {"type": "Point", "coordinates": [-86.84075, 36.23]}, "properties": {"name": "Briley Pkwy WB @ Clarksville Pike (MM 20.97) (R3-129)", "kind": "live", "directions": [{"snapshot": "https://tnsnapshots.com/thumbs/R3_129.flv.png", "video": "https://mcleansfs3.us-east-1.skyvdn.com:443/rtplive/R3_129/playlist.m3u8", "label": ""}], "roadway": "Briley Pkwy", "county": "Nashville"}}, {"type": "Feature", "geometry": {"type": "Point", "coordinates": [-86.82928, 36.23005]}, "properties": {"name": "Briley Pkwy EB e/o Clarksville Pike (MM 20.31) (R3-130)", "kind": "live", "directions": [{"snapshot": "https://tnsnapshots.com/thumbs/R3_130.flv.png", "video": "https://mcleansfs3.us-east-1.skyvdn.com:443/rtplive/R3_130/playlist.m3u8", "label": ""}], "roadway": "Briley Pkwy", "county": "Nashville"}}, {"type": "Feature", "geometry": {"type": "Point", "coordinates": [-86.78487, 36.25318]}, "properties": {"name": "I-24 WB w/o Brilley (MM 42.2) (R3_150)", "kind": "live", "directions": [{"snapshot": "https://tnsnapshots.com/thumbs/R3_150.flv.png", "video": "https://mcleansfs3.us-east-1.skyvdn.com:443/rtplive/R3_150/playlist.m3u8", "label": ""}], "roadway": "I-24", "county": "Nashville"}}, {"type": "Feature", "geometry": {"type": "Point", "coordinates": [-86.83789028, 35.82163899]}, "properties": {"name": "I-65 @ I-840 (MM 59.0) (R3_151)", "kind": "live", "directions": [{"snapshot": "https://tnsnapshots.com/thumbs/R3_151.flv.png", "video": "https://mcleansfs3.us-east-1.skyvdn.com:443/rtplive/R3_151/playlist.m3u8", "label": ""}], "roadway": "I-65", "county": "Nashville"}}, {"type": "Feature", "geometry": {"type": "Point", "coordinates": [-86.82895561, 35.89286314]}, "properties": {"name": "I-65 s/o HWY 96 (MM 64.0) (R3_155)", "kind": "live", "directions": [{"snapshot": "https://tnsnapshots.com/thumbs/R3_155.flv.png", "video": "https://mcleansfs3.us-east-1.skyvdn.com:443/rtplive/R3_155/playlist.m3u8", "label": ""}], "roadway": "I-65", "county": "Nashville"}}, {"type": "Feature", "geometry": {"type": "Point", "coordinates": [-86.82379694, 35.92042196]}, "properties": {"name": "I-65 n/o HWY 96 (MM 65.8) (R3_157)", "kind": "live", "directions": [{"snapshot": "https://tnsnapshots.com/thumbs/R3_157.flv.png", "video": "https://mcleansfs3.us-east-1.skyvdn.com:443/rtplive/R3_157/playlist.m3u8", "label": ""}], "roadway": "I-65", "county": "Nashville"}}, {"type": "Feature", "geometry": {"type": "Point", "coordinates": [-86.81942978, 35.93400096]}, "properties": {"name": "I-65 @ McEwen Dr (MM 66.8) (R3_158)", "kind": "live", "directions": [{"snapshot": "https://tnsnapshots.com/thumbs/R3_158.flv.png", "video": "https://mcleansfs3.us-east-1.skyvdn.com:443/rtplive/R3_158/playlist.m3u8", "label": ""}], "roadway": "I-65", "county": "Nashville"}}, {"type": "Feature", "geometry": {"type": "Point", "coordinates": [-86.81354761, 35.94797813]}, "properties": {"name": "I-65 @ Cool Springs (MM 67.9) (R3_159)", "kind": "live", "directions": [{"snapshot": "https://tnsnapshots.com/thumbs/R3_159.flv.png", "video": "https://mcleansfs3.us-east-1.skyvdn.com:443/rtplive/R3_159/playlist.m3u8", "label": ""}], "roadway": "I-65", "county": "Nashville"}}, {"type": "Feature", "geometry": {"type": "Point", "coordinates": [-86.80832494, 35.96620195]}, "properties": {"name": "I-65 @ Moores Ln (MM 69.2) (R3_160)", "kind": "live", "directions": [{"snapshot": "https://tnsnapshots.com/thumbs/R3_160.flv.png", "video": "https://mcleansfs3.us-east-1.skyvdn.com:443/rtplive/R3_160/playlist.m3u8", "label": ""}], "roadway": "I-65", "county": "Nashville"}}, {"type": "Feature", "geometry": {"type": "Point", "coordinates": [-86.80179727, 35.98391012]}, "properties": {"name": "I-65 n/o Moores Ln (MM 70.4) (R3_161)", "kind": "live", "directions": [{"snapshot": "https://tnsnapshots.com/thumbs/R3_161.flv.png", "video": "https://mcleansfs3.us-east-1.skyvdn.com:443/rtplive/R3_161/playlist.m3u8", "label": ""}], "roadway": "I-65", "county": "Nashville"}}, {"type": "Feature", "geometry": {"type": "Point", "coordinates": [-86.88776077, 35.82220566]}, "properties": {"name": "I-840 @ Columbia Pike (MM 28.0) (R3_163)", "kind": "live", "directions": [{"snapshot": "https://tnsnapshots.com/thumbs/R3_163.flv.png", "video": "https://mcleansfs3.us-east-1.skyvdn.com:443/rtplive/R3_163/playlist.m3u8", "label": ""}], "roadway": "I-840", "county": "Nashville"}}, {"type": "Feature", "geometry": {"type": "Point", "coordinates": [-86.86108428, 35.82223732]}, "properties": {"name": "I-840 e/o I-65 (MM 28.5) (R3_165)", "kind": "live", "directions": [{"snapshot": "https://tnsnapshots.com/thumbs/R3_165.flv.png", "video": "https://mcleansfs3.us-east-1.skyvdn.com:443/rtplive/R3_165/playlist.m3u8", "label": ""}], "roadway": "I-840", "county": "Nashville"}}, {"type": "Feature", "geometry": {"type": "Point", "coordinates": [-86.85078095, 35.82130949]}, "properties": {"name": "I-840 w/o I-65 (MM 30.0) (R3_166)", "kind": "live", "directions": [{"snapshot": "https://tnsnapshots.com/thumbs/R3_166.flv.png", "video": "https://mcleansfs3.us-east-1.skyvdn.com:443/rtplive/R3_166/playlist.m3u8", "label": ""}], "roadway": "I-840", "county": "Nashville"}}, {"type": "Feature", "geometry": {"type": "Point", "coordinates": [-86.396258, 35.812346]}, "properties": {"name": "I-24 @ Shelbyville Hwy (MM81) (R3_189)", "kind": "live", "directions": [{"snapshot": "https://tnsnapshots.com/thumbs/R3_189.flv.png", "video": "https://mcleansfs3.us-east-1.skyvdn.com:443/rtplive/R3_189/playlist.m3u8", "label": ""}], "roadway": "I-24", "county": "Nashville"}}, {"type": "Feature", "geometry": {"type": "Point", "coordinates": [-86.380317, 35.797667]}, "properties": {"name": "I-24 w/o Joe B Jackson (MM82.8) (R3_190)", "kind": "live", "directions": [{"snapshot": "https://tnsnapshots.com/thumbs/R3_190.flv.png", "video": "https://mcleansfs3.us-east-1.skyvdn.com:443/rtplive/R3_190/playlist.m3u8", "label": ""}], "roadway": "I-24", "county": "Nashville"}}, {"type": "Feature", "geometry": {"type": "Point", "coordinates": [-86.372917, 35.785]}, "properties": {"name": "I-24 @ Joe Jackson (MM84) (R3_191)", "kind": "live", "directions": [{"snapshot": "https://tnsnapshots.com/thumbs/R3_191.flv.png", "video": "https://mcleansfs3.us-east-1.skyvdn.com:443/rtplive/R3_191/playlist.m3u8", "label": ""}], "roadway": "I-24", "county": "Nashville"}}, {"type": "Feature", "geometry": {"type": "Point", "coordinates": [-86.354083, 35.762817]}, "properties": {"name": "I-24 w/o Elam Rd (MM85) (R3_192)", "kind": "live", "directions": [{"snapshot": "https://tnsnapshots.com/thumbs/R3_192.flv.png", "video": "https://mcleansfs3.us-east-1.skyvdn.com:443/rtplive/R3_192/playlist.m3u8", "label": ""}], "roadway": "I-24", "county": "Nashville"}}, {"type": "Feature", "geometry": {"type": "Point", "coordinates": [-86.52401667, 35.86371667]}, "properties": {"name": "SR 840 e/o Veterans Pkwy (MM49.8) (R3_193)", "kind": "live", "directions": [{"snapshot": "https://tnsnapshots.com/thumbs/R3_193.flv.png", "video": "https://mcleansfs3.us-east-1.skyvdn.com:443/rtplive/R3_193/playlist.m3u8", "label": ""}], "roadway": "SR-840", "county": "Nashville"}}, {"type": "Feature", "geometry": {"type": "Point", "coordinates": [-86.449228, 35.903671]}, "properties": {"name": "SR 840 @ Nashville Hwy (mm55) (R3_194)", "kind": "live", "directions": [{"snapshot": "https://tnsnapshots.com/thumbs/R3_194.flv.png", "video": "https://mcleansfs3.us-east-1.skyvdn.com:443/rtplive/R3_194/playlist.m3u8", "label": ""}], "roadway": "SR-840", "county": "Nashville"}}, {"type": "Feature", "geometry": {"type": "Point", "coordinates": [-86.435126, 35.931105]}, "properties": {"name": "SR 840 w/o Shacklett Rd (MM57) (R3_195)", "kind": "live", "directions": [{"snapshot": "https://tnsnapshots.com/thumbs/R3_195.flv.png", "video": "https://mcleansfs3.us-east-1.skyvdn.com:443/rtplive/R3_195/playlist.m3u8", "label": ""}], "roadway": "SR-840", "county": "Nashville"}}, {"type": "Feature", "geometry": {"type": "Point", "coordinates": [-86.713577, 36.379322]}, "properties": {"name": "I-65 N/O LVLE HWY (MM 101.2) (R3-197)", "kind": "live", "directions": [{"snapshot": "https://tnsnapshots.com/thumbs/R3_197.flv.png", "video": "https://mcleansfs3.us-east-1.skyvdn.com:443/rtplive/R3_197/playlist.m3u8", "label": ""}], "roadway": "I-65", "county": "Nashville"}}, {"type": "Feature", "geometry": {"type": "Point", "coordinates": [-86.720178, 36.401308]}, "properties": {"name": "I-65 N/O LVLE HWY (MM 102.7) (R3-198)", "kind": "live", "directions": [{"snapshot": "https://tnsnapshots.com/thumbs/R3_198.flv.png", "video": "https://mcleansfs3.us-east-1.skyvdn.com:443/rtplive/R3_198/playlist.m3u8", "label": ""}], "roadway": "I-65", "county": "Nashville"}}, {"type": "Feature", "geometry": {"type": "Point", "coordinates": [-86.722994, 36.410421]}, "properties": {"name": "I-65 SB s/o BETHEL RD (MM 103.4) (R3-199)", "kind": "live", "directions": [{"snapshot": "https://tnsnapshots.com/thumbs/R3_199.flv.png", "video": "https://mcleansfs3.us-east-1.skyvdn.com:443/rtplive/R3_199/playlist.m3u8", "label": ""}], "roadway": "I-65", "county": "Nashville"}}, {"type": "Feature", "geometry": {"type": "Point", "coordinates": [-86.721221, 36.411533]}, "properties": {"name": "I-65 NB s/o BETHEL RD (MM 103.4) (R3-200)", "kind": "live", "directions": [{"snapshot": "https://tnsnapshots.com/thumbs/R3_200.flv.png", "video": "https://mcleansfs3.us-east-1.skyvdn.com:443/rtplive/R3_200/playlist.m3u8", "label": ""}], "roadway": "I-65", "county": "Nashville"}},