{"type": "FeatureCollection", "features": [{"type": "Feature", "geometry": {"type": "Point", "coordinates": [-121.736394, 46.785799]}, "properties": {"name": "Mt. Rainier", "kind": "live", "directions": [{"snapshot": "https://www.nps.gov/webcams-mora/east.jpg", "video": null, "label": "", "facing": "Eastbound", "refresh_sec": 80}], "roadway": "City & County Cams", "county": ""}}, {"type": "Feature", "geometry": {"type": "Point", "coordinates": [-122.823364, 47.048766]}, "properties": {"name": "College @ Martin Way (Lacey)", "kind": "live", "directions": [{"snapshot": "https://images.wsdot.wa.gov/orflow/005vc10895.jpg", "video": null, "label": "", "facing": "Both directions", "refresh_sec": 54}], "roadway": "City & County Cams", "county": ""}}, {"type": "Feature", "geometry": {"type": "Point", "coordinates": [-122.891596, 47.039727]}, "properties": {"name": "Plum @ Union (Olympia)", "kind": "live", "directions": [{"snapshot": "https://images.wsdot.wa.gov/orflow/005vc10561.jpg", "video": null, "label": "", "facing": "Westbound", "refresh_sec": 67}], "roadway": "City & County Cams", "county": ""}}, {"type": "Feature", "geometry": {"type": "Point", "coordinates": [-122.833618, 47.047902]}, "properties": {"name": "Sleater-Kinney @ Martin Way (Olympia)", "kind": "live", "directions": [{"snapshot": "https://images.wsdot.wa.gov/orflow/005vc10840.jpg", "video": null, "label": "", "facing": "Both directions", "refresh_sec": 61}], "roadway": "City & County Cams", "county": ""}}, {"type": "Feature", "geometry": {"type": "Point", "coordinates": [-120.25669, 48.47764]}, "properties": {"name": "Winthrop", "kind": "live", "directions": [{"snapshot": "https://sunmountainlodge.com/wp-content/uploads/webcam/smlcam.jpg", "video": null, "label": "", "facing": "Northbound"}], "roadway": "City & County Cams", "county": ""}}, {"type": "Feature", "geometry": {"type": "Point", "coordinates": [-120.291016, 47.454987]}, "properties": {"name": "Douglas County: Eastmont Ave", "kind": "live", "directions": [{"snapshot": "https://images.wsdot.wa.gov/nc/DOUvc00001.jpg", "video": null, "label": "", "facing": "Northbound", "refresh_sec": 119}], "roadway": "City & County Cams", "county": ""}}, {"type": "Feature", "geometry": {"type": "Point", "coordinates": [-117.42651, 47.65449]}, "properties": {"name": "2nd / Monroe (Spokane)", "kind": "live", "directions": [{"snapshot": "https://images.wsdot.wa.gov/spokane/cos_2nd_monroe.jpg", "video": null, "label": "", "facing": "Both directions", "refresh_sec": 418}], "roadway": "City & County Cams", "county": ""}}, {"type": "Feature", "geometry": {"type": "Point", "coordinates": [-117.413345, 47.6535]}, "properties": {"name": "3rd / Browne (Spokane)", "kind": "live", "directions": [{"snapshot": "https://images.wsdot.wa.gov/spokane/cos_3rd_browne.jpg", "video": null, "label": "", "facing": "Both directions", "refresh_sec": 418}], "roadway": "City & County Cams", "county": ""}}, {"type": "Feature", "geometry": {"type": "Point", "coordinates": [-117.43555, 47.65352]}, "properties": {"name": "3rd / Maple (Spokane)", "kind": "live", "directions": [{"snapshot": "https://images.wsdot.wa.gov/spokane/cos_3rd_maple.jpg", "video": null, "label": "", "facing": "Both directions", "refresh_sec": 418}], "roadway": "City & County Cams", "county": ""}}, {"type": "Feature", "geometry": {"type": "Point", "coordinates": [-117.41796, 47.65349]}, "properties": {"name": "3rd / Washington (Spokane)", "kind": "live", "directions": [{"snapshot": "https://images.wsdot.wa.gov/spokane/cos_3rd_washington.jpg", "video": null, "label": "", "facing": "Both directions", "refresh_sec": 418}], "roadway": "City & County Cams", "county": ""}}, {"type": "Feature", "geometry": {"type": "Point", "coordinates": [-122.5112, 47.62314]}, "properties": {"name": "WSF Bainbridge Ferry Holding", "kind": "live", "directions": [{"snapshot": "https://images.wsdot.wa.gov/wsf/Bainbridge/Bainbridge.jpg", "video": null, "label": "", "facing": "Westbound", "refresh_sec": 239}], "roadway": "Ferries", "county": ""}}, {"type": "Feature", "geometry": {"type": "Point", "coordinates": [-122.514133, 47.624849]}, "properties": {"name": "SR 305 at MP 0.2: Winslow Way", "kind": "live", "directions": [{"snapshot": "https://images.wsdot.wa.gov/orflow/305vc00023.jpg", "video": null, "label": "North", "facing": "Northbound", "refresh_sec": 60}, {"snapshot": "https://images.wsdot.wa.gov/orflow/305vc00022.jpg", "video": null, "label": "South", "facing": "Southbound", "refresh_sec": 59}], "roadway": "Ferries", "county": ""}}, {"type": "Feature", "geometry": {"type": "Point", "coordinates": [-122.515529, 47.635773]}, "properties": {"name": "SR 305 @ MP 1: High School Rd", "kind": "live", "directions": [{"snapshot": "https://images.wsdot.wa.gov/orflow/305vc00098.jpg", "video": null, "label": "Both", "facing": "Both directions", "refresh_sec": 61}, {"snapshot": "https://images.wsdot.wa.gov/orflow/305vc00028.jpg", "video": null, "label": "NB", "facing": "Northbound", "refresh_sec": 61}, {"snapshot": "https://images.wsdot.wa.gov/orflow/305vc00029.jpg", "video": null, "label": "SB", "facing": "Southbound", "refresh_sec": 59}], "roadway": "SR 305", "county": ""}}, {"type": "Feature", "geometry": {"type": "Point", "coordinates": [-122.884565, 48.56895]}, "properties": {"name": "WSF Lopez Ferry Approach", "kind": "live", "directions": [{"snapshot": "https://images.wsdot.wa.gov/wsf/lopez/approach.jpg", "video": null, "label": "", "facing": "Southbound", "refresh_sec": 250}], "roadway": "Ferries", "county": ""}}, {"type": "Feature", "geometry": {"type": "Point", "coordinates": [-122.883996, 48.569207]}, "properties": {"name": "WSF Lopez Ferry Holding", "kind": "live", "directions": [{"snapshot": "https://images.wsdot.wa.gov/wsf/lopez/holding3.jpg", "video": null, "label": "Looking North", "facing": "Northbound", "refresh_sec": 209}, {"snapshot": "https://images.wsdot.wa.gov/wsf/lopez/holding.jpg", "video": null, "label": "Looking South", "facing": "Northbound", "refresh_sec": 249}, {"snapshot": "https://images.wsdot.wa.gov/wsf/lopez/holding2.jpg", "video": null, "label": "Middle", "facing": "Westbound", "refresh_sec": 248}], "roadway": "Ferries", "county": ""}}, {"type": "Feature", "geometry": {"type": "Point", "coordinates": [-122.514782, 47.303365]}, "properties": {"name": "WSF Point Defiance Holding", "kind": "live", "directions": [{"snapshot": "https://images.wsdot.wa.gov/wsf/PointDefiance/PtDefHolding.jpg", "video": null, "label": "", "facing": "Northbound", "refresh_sec": 256}], "roadway": "Ferries", "county": ""}}, {"type": "Feature", "geometry": {"type": "Point", "coordinates": [-122.514751, 47.30365]}, "properties": {"name": "WSF Point Defiance Booth", "kind": "live", "directions": [{"snapshot": "https://images.wsdot.wa.gov/wsf/PointDefiance/PtDefBooth.jpg", "video": null, "label": "", "facing": "Northbound", "refresh_sec": 257}], "roadway": "Ferries", "county": ""}}, {"type": "Feature", "geometry": {"type": "Point", "coordinates": [-123.0066, 48.5351]}, "properties": {"name": "WSF Friday Harbor Ferry Holding", "kind": "live", "directions": [{"snapshot": "https://images.wsdot.wa.gov/wsf/fridayharbor/friholding.jpg", "video": null, "label": "", "facing": "Northbound", "refresh_sec": 242}], "roadway": "Ferries", "county": ""}}, {"type": "Feature", "geometry": {"type": "Point", "coordinates": [-123.014861, 48.533251]}, "properties": {"name": "WSF Friday Harbor Upper Holding", "kind": "live", "directions": [{"snapshot": "https://images.wsdot.wa.gov/wsf/fridayharbor/upperholding.jpg", "video": null, "label": "", "facing": "Eastbound", "refresh_sec": 243}], "roadway": "Ferries", "county": ""}}, {"type": "Feature", "geometry": {"type": "Point", "coordinates": [-122.300562, 47.92825]}, "properties": {"name": "SR 525 at MP 6.9: 76th St SW South - WSF Mukilteo", "kind": "live", "directions": [{"snapshot": "https://images.wsdot.wa.gov/nw/525vc00694.jpg", "video": null, "label": "", "facing": "Westbound", "refresh_sec": 117}], "roadway": "Ferries", "county": ""}}, {"type": "Feature", "geometry": {"type": "Point", "coordinates": [-122.945556, 48.598694]}, "properties": {"name": "WSF Orcas Ferry", "kind": "live", "directions": [{"snapshot": "https://images.wsdot.wa.gov/wsf/orcas/booth.jpg", "video": null, "label": "Booth", "facing": "Southbound", "refresh_sec": 247}, {"snapshot": "https://images.wsdot.wa.gov/wsf/orcas/holding.jpg", "video": null, "label": "Holding", "facing": "Eastbound", "refresh_sec": 246}], "roadway": "Ferries", "county": ""}}, {"type": "Feature", "geometry": {"type": "Point", "coordinates": [-122.300644, 47.928385]}, "properties": {"name": "SR 525 at MP 6.9: 76th St SW North - WSF Mukilteo", "kind": "live", "directions": [{"snapshot": "https://images.wsdot.wa.gov/nw/525vc00695.jpg", "video": null, "label": "", "facing": "Westbound", "refresh_sec": 119}], "roadway": "Ferries", "county": ""}}, {"type": "Feature", "geometry": {"type": "Point", "coordinates": [-122.306348, 47.933469]}, "properties": {"name": "SR 525 at MP 7.4: Clover Ln - WSF Mukilteo", "kind": "live", "directions": [{"snapshot": "https://images.wsdot.wa.gov/nw/525vc00740.jpg", "video": null, "label": "", "facing": "Westbound", "refresh_sec": 119}], "roadway": "Ferries", "county": ""}}, {"type": "Feature", "geometry": {"type": "Point", "coordinates": [-122.304359, 47.944755]}, "properties": {"name": "SR 525 at MP 8.1: 5th St South - WSF Mukilteo", "kind": "live", "directions": [{"snapshot": "https://images.wsdot.wa.gov/nw/525vc00819.jpg", "video": null, "label": "", "facing": "Southbound", "refresh_sec": 119}], "roadway": "Ferries", "county": ""}}, {"type": "Feature", "geometry": {"type": "Point", "coordinates": [-122.351516, 47.974813]}, "properties": {"name": "WSF Clinton Dock", "kind": "live", "directions": [{"snapshot": "https://images.wsdot.wa.gov/wsf/clinton/boothdock.jpg", "video": null, "label": "", "facing": "Eastbound", "refresh_sec": 237}], "roadway": "Ferries", "county": ""}}, {"type": "Feature", "geometry": {"type": "Point", "coordinates": [-122.304287, 47.944899]}, "properties": {"name": "SR 525 at MP 8.2: 5th St North - WSF Mukilteo", "kind": "live", "directions": [{"snapshot": "https://images.wsdot.wa.gov/nw/525vc00820.jpg", "video": null, "label": "", "facing": "Westbound", "refresh_sec": 119}], "roadway": "Ferries", "county": ""}}, {"type": "Feature", "geometry": {"type": "Point", "coordinates": [-122.301103, 47.948838]}, "properties": {"name": "SR 525 at MP 8.4: 1st Street", "kind": "live", "directions": [{"snapshot": "https://images.wsdot.wa.gov/nw/525vc00858.jpg", "video": null, "label": "", "facing": "Both directions", "refresh_sec": 118}], "roadway": "Ferries", "county": ""}}, {"type": "Feature", "geometry": {"type": "Point", "coordinates": [-122.302007, 47.948756]}, "properties": {"name": "WSF Mukilteo Holding", "kind": "live", "directions": [{"snapshot": "https://images.wsdot.wa.gov/wsf/Mukilteo/Terminal/mukterm.jpg", "video": null, "label": "", "facing": "Westbound", "refresh_sec": 230}], "roadway": "Ferries", "county": ""}}, {"type": "Feature", "geometry": {"type": "Point", "coordinates": [-122.352079, 47.974718]}, "properties": {"name": "WSF Clinton", "kind": "live", "directions": [{"snapshot": "https://images.wsdot.wa.gov/wsf/clinton/terminal/clinton.jpg", "video": null, "label": "Terminal", "facing": "Eastbound", "refresh_sec": 238}, {"snapshot": "https://images.wsdot.wa.gov/wsf/clinton/boothhill.jpg", "video": null, "label": "Uphill", "facing": "Eastbound", "refresh_sec": 238}], "roadway": "Ferries", "county": ""}}, {"type": "Feature", "geometry": {"type": "Point", "coordinates": [-122.359076, 47.979638]}, "properties": {"name": "WSF Clinton W SR 525", "kind": "live", "directions": [{"snapshot": "https://images.wsdot.wa.gov/wsf/clinton/clintwest.jpg", "video": null, "label": "", "facing": "Westbound", "refresh_sec": 209}], "roadway": "Ferries", "county": ""}}, {"type": "Feature", "geometry": {"type": "Point", "coordinates": [-122.356762, 47.97919]}, "properties": {"name": "WSF Clinton E SR 525", "kind": "live", "directions": [{"snapshot": "https://images.wsdot.wa.gov/wsf/clinton/clinteast.jpg", "video": null, "label": "", "facing": "Eastbound", "refresh_sec": 238}], "roadway": "Ferries", "county": ""}}, {"type": "Feature", "geometry": {"type": "Point", "coordinates": [-122.3382, 47.60285]}, "properties": {"name": "WSF Seattle Ferry Main Vehicle Holding", "kind": "live", "directions": [{"snapshot": "https://images.wsdot.wa.gov/wsf/colman/seattlemain.jpg", "video": null, "label": "", "facing": "Westbound", "stale_since": "2003-09-08T17:55:29Z"}], "roadway": "Ferries", "county": ""}}, {"type": "Feature", "geometry": {"type": "Point", "coordinates": [-122.62535, 47.56265]}, "properties": {"name": "WSF Bremerton Ferry Holding", "kind": "live", "directions": [{"snapshot": "https://images.wsdot.wa.gov/wsf/bremerton/holding/holding.jpg", "video": null, "label": "", "facing": "Northbound", "refresh_sec": 239}], "roadway": "Ferries", "county": ""}}, {"type": "Feature", "geometry": {"type": "Point", "coordinates": [-122.672701, 48.159349]}, "properties": {"name": "WSF Coupeville", "kind": "live", "directions": [{"snapshot": "https://images.wsdot.wa.gov/wsf/Keystone/Street/keyStreet.jpg", "video": null, "label": "Street", "facing": "Eastbound", "refresh_sec": 263}, {"snapshot": "https://images.wsdot.wa.gov/wsf/Keystone/terminal/keyterm.jpg", "video": null, "label": "Terminal", "facing": "Eastbound", "refresh_sec": 262}], "roadway": "Ferries", "county": ""}}, {"type": "Feature", "geometry": {"type": "Point", "coordinates": [-122.39359, 47.5232]}, "properties": {"name": "WSF Fauntleroy Ferry Holding", "kind": "live", "directions": [{"snapshot": "https://images.wsdot.wa.gov/wsf/fauntleroy/terminal/fauntleroy.jpg", "video": null, "label": "", "facing": "Westbound", "refresh_sec": 266}], "roadway": "Ferries", "county": ""}}, {"type": "Feature", "geometry": {"type": "Point", "coordinates": [-122.392938, 47.52263]}, "properties": {"name": "WSF Fauntleroy Way looking North", "kind": "live", "directions": [{"snapshot": "https://images.wsdot.wa.gov/wsf/fauntleroy/terminal/fauntterminal.jpg", "video": null, "label": "", "facing": "Northbound", "refresh_sec": 266}], "roadway": "Ferries", "county": ""}}, {"type": "Feature", "geometry": {"type": "Point", "coordinates": [-122.392652, 47.524794]}, "properties": {"name": "WSF Fauntleroy Trenton St looking North", "kind": "live", "directions": [{"snapshot": "https://images.wsdot.wa.gov/wsf/fauntleroy/terminal/faunttrenton.jpg", "video": null, "label": "", "facing": "Northbound", "refresh_sec": 264}], "roadway": "Ferries", "county": ""}}, {"type": "Feature", "geometry": {"type": "Point", "coordinates": [-122.392633, 47.530459]}, "properties": {"name": "WSF Fauntleroy Lincoln Park looking North", "kind": "live", "directions": [{"snapshot": "https://images.wsdot.wa.gov/wsf/fauntleroy/terminal/fauntlincoln.jpg", "video": null, "label": "", "facing": "Northbound", "refresh_sec": 264}], "roadway": "Ferries", "county": ""}}, {"type": "Feature", "geometry": {"type": "Point", "coordinates": [-122.392883, 47.526718]}, "properties": {"name": "WSF Fauntleroy Way and Cloverdale St.", "kind": "live", "directions": [{"snapshot": "https://www.seattle.gov/trafficcams/images/Fauntleroy_SW_Cloverdale_NS.jpg", "video": null, "label": "", "facing": "Northbound"}], "roadway": "Ferries", "county": ""}}, {"type": "Feature", "geometry": {"type": "Point", "coordinates": [-122.496861, 47.797035]}, "properties": {"name": "WSF Kingston SR 104 at Toll Booths", "kind": "live", "directions": [{"snapshot": "https://images.wsdot.wa.gov/orflow/104vc02466.jpg", "video": null, "label": "", "facing": "Northbound", "refresh_sec": 63}], "roadway": "Ferries", "county": ""}}, {"type": "Feature", "geometry": {"type": "Point", "coordinates": [-122.495519, 47.797124]}, "properties": {"name": "WSF Kingston Terminal", "kind": "live", "directions": [{"snapshot": "https://images.wsdot.wa.gov/orflow/104vc02465.jpg", "video": null, "label": "", "facing": "Eastbound", "refresh_sec": 68}], "roadway": "Ferries", "county": ""}}, {"type": "Feature", "geometry": {"type": "Point", "coordinates": [-122.503472, 47.802667]}, "properties": {"name": "WSF Kingston Lindvog Rd", "kind": "live", "directions": [{"snapshot": "https://images.wsdot.wa.gov/orflow/104vc02390.jpg", "video": null, "label": "", "facing": "Both directions", "refresh_sec": 58}], "roadway": "Ferries", "county": ""}}, {"type": "Feature", "geometry": {"type": "Point", "coordinates": [-122.517503, 47.808285]}, "properties": {"name": "WSF Kingston Barber", "kind": "live", "directions": [{"snapshot": "https://images.wsdot.wa.gov/orflow/104vc02314.jpg", "video": null, "label": "", "facing": "Eastbound", "refresh_sec": 64}], "roadway": "Ferries", "county": ""}}, {"type": "Feature", "geometry": {"type": "Point", "coordinates": [-122.52564, 47.80941]}, "properties": {"name": "WSF Kingston Ferry Sign", "kind": "live", "directions": [{"snapshot": "https://images.wsdot.wa.gov/wsf/kingston/fse/fse.jpg", "video": null, "label": "East", "facing": "Eastbound", "refresh_sec": 261}, {"snapshot": "https://images.wsdot.wa.gov/wsf/kingston/fsw/fsw.jpg", "video": null, "label": "West", "facing": "Westbound", "refresh_sec": 260}], "roadway": "Ferries", "county": ""}}, {"type": "Feature", "geometry": {"type": "Point", "coordinates": [-122.760466, 48.112086]}, "properties": {"name": "WSF Port Townsend", "kind": "live", "directions": [{"snapshot": "https://images.wsdot.wa.gov/wsf/PortTownsend/Street/ptStreet.jpg", "video": null, "label": "Street", "facing": "Westbound", "refresh_sec": 256}, {"snapshot": "https://images.wsdot.wa.gov/wsf/PortTownsend/terminal/ptterm.jpg", "video": null, "label": "Terminal", "facing": "Eastbound", "refresh_sec": 257}], "roadway": "Ferries", "county": ""}}, {"type": "Feature", "geometry": {"type": "Point", "coordinates": [-122.4973, 47.51189]}, "properties": {"name": "WSF Southworth Ferry", "kind": "live", "directions": [{"snapshot": "https://images.wsdot.wa.gov/wsf/southworth/holding.jpg", "video": null, "label": "Holding", "facing": "Eastbound", "refresh_sec": 233}, {"snapshot": "https://images.wsdot.wa.gov/wsf/southworth/terminal.jpg", "video": null, "label": "Terminal", "facing": "Westbound", "refresh_sec": 233}], "roadway": "Ferries", "county": ""}}, {"type": "Feature", "geometry": {"type": "Point", "coordinates": [-122.506968, 47.332941]}, "properties": {"name": "WSF Tahlequah Ferry Holding", "kind": "live", "directions": [{"snapshot": "https://images.wsdot.wa.gov/wsf/Tahlequah/holding/holding.jpg", "video": null, "label": "", "facing": "Southbound", "stale_since": "2003-09-08T17:55:29Z"}], "roadway": "Ferries", "county": ""}}, {"type": "Feature", "geometry": {"type": "Point", "coordinates": [-122.506957, 47.333079]}, "properties": {"name": "WSF Tahlequah @ SW Tahlequah Rd", "kind": "live", "directions": [{"snapshot": "https://images.wsdot.wa.gov/wsf/Tahlequah/VMSSign/VMSSign.jpg", "video": null, "label": "", "facing": "Northbound"}], "roadway": "Ferries", "county": ""}}, {"type": "Feature", "geometry": {"type": "Point", "coordinates": [-122.463852, 47.510459]}, "properties": {"name": "WSF Vashon Ferry Holding (South)", "kind": "live", "directions": [{"snapshot": "https://images.wsdot.wa.gov/wsf/vashon/HoldingSouth.jpg", "video": null, "label": "", "facing": "Southbound", "refresh_sec": 230}], "roadway": "Ferries", "county": ""}}, {"type": "Feature", "geometry": {"type": "Point", "coordinates": [-122.461681, 47.505512]}, "properties": {"name": "WSF Vashon Hwy & 112th (South)", "kind": "live", "directions": [{"snapshot": "https://images.wsdot.wa.gov/wsf/vashon/VSHvc00003.jpg", "video": null, "label": "", "facing": "Southbound", "refresh_sec": 209}], "roadway": "Ferries", "county": ""}}, {"type": "Feature", "geometry": {"type": "Point", "coordinates": [-122.46173, 47.505682]}, "properties": {"name": "WSF Vashon Hwy & 112th (North)", "kind": "live", "directions": [{"snapshot": "https://images.wsdot.wa.gov/wsf/vashon/VSHvc00004.jpg", "video": null, "label": "", "facing": "Northbound", "refresh_sec": 208}], "roadway": "Ferries", "county": ""}}, {"type": "Feature", "geometry": {"type": "Point", "coordinates": [-122.46284, 47.507367]}, "properties": {"name": "WSF Vashon Hwy & Bunker (South)", "kind": "live", "directions": [{"snapshot": "https://images.wsdot.wa.gov/wsf/vashon/VSHvc00002.jpg", "video": null, "label": "", "facing": "Southbound", "stale_since": "2003-09-08T17:55:29Z"}], "roadway": "Ferries", "county": ""}}, {"type": "Feature", "geometry": {"type": "Point", "coordinates": [-122.46291, 47.507541]}, "properties": {"name": "WSF Vashon Hwy & Bunker (North)", "kind": "live", "directions": [{"snapshot": "https://images.wsdot.wa.gov/wsf/vashon/VSHvc00001.jpg", "video": null, "label": "", "facing": "Northbound", "stale_since": "2003-09-08T17:55:29Z"}], "roadway": "Ferries", "county": ""}}, {"type": "Feature", "geometry": {"type": "Point", "coordinates": [-122.382307, 47.802073]}, "properties": {"name": "WSF Edmonds Underpass", "kind": "live", "directions": [{"snapshot": "https://images.wsdot.wa.gov/wsf/edmonds/104underpass.jpg", "video": null, "label": "", "facing": "Westbound", "refresh_sec": 238}], "roadway": "Ferries", "county": ""}}, {"type": "Feature", "geometry": {"type": "Point", "coordinates": [-122.382463, 47.802181]}, "properties": {"name": "WSF Edmonds Pine", "kind": "live", "directions": [{"snapshot": "https://images.wsdot.wa.gov/wsf/edmonds/104pine.jpg", "video": null, "label": "", "facing": "Westbound", "refresh_sec": 237}], "roadway": "Ferries", "county": ""}}, {"type": "Feature", "geometry": {"type": "Point", "coordinates": [-122.383213, 47.809182]}, "properties": {"name": "WSF Edmonds W Dayton St", "kind": "live", "directions": [{"snapshot": "https://images.wsdot.wa.gov/wsf/edmonds/104dayton.jpg", "video": null, "label": "", "facing": "Westbound", "refresh_sec": 237}], "roadway": "Ferries", "county": ""}}, {"type": "Feature", "geometry": {"type": "Point", "coordinates": [-122.383209, 47.809746]}, "properties": {"name": "WSF Edmonds Holding", "kind": "live", "directions": [{"snapshot": "https://images.wsdot.wa.gov/wsf/edmonds/holding.jpg", "video": null, "label": "", "facing": "Westbound", "refresh_sec": 236}], "roadway": "Ferries", "county": ""}}, {"type": "Feature", "geometry": {"type": "Point", "coordinates": [-122.366986, 47.790573]}, "properties": {"name": "WSF Edmonds VMS Sign", "kind": "live", "directions": [{"snapshot": "https://images.wsdot.wa.gov/wsf/edmonds/104vms_wts.jpg", "video": null, "label": "", "facing": "Westbound"}], "roadway": "Ferries", "county": ""}}, {"type": "Feature", "geometry": {"type": "Point", "coordinates": [-122.679509, 48.503437]}, "properties": {"name": "WSF Anacortes Ferry Holding", "kind": "live", "directions": [{"snapshot": "https://images.wsdot.wa.gov/wsf/anacortes/holding/anahold.jpg", "video": null, "label": "", "facing": "Northbound", "refresh_sec": 242}], "roadway": "Ferries", "county": ""}}, {"type": "Feature", "geometry": {"type": "Point", "coordinates": [-122.679337, 48.501976]}, "properties": {"name": "WSF Anacortes Ferry Terminal Rd", "kind": "live", "directions": [{"snapshot": "https://images.wsdot.wa.gov/wsf/anacortes/road/anaroad.jpg", "video": null, "label": "", "facing": "Southbound", "refresh_sec": 244}], "roadway": "Ferries", "county": ""}}, {"type": "Feature", "geometry": {"type": "Point", "coordinates": [-122.679048, 48.505975]}, "properties": {"name": "WSF Anacortes Ferry Terminal", "kind": "live", "directions": [{"snapshot": "https://images.wsdot.wa.gov/wsf/anacortes/terminal/anaterm.jpg", "video": null, "label": "", "facing": "Northbound", "refresh_sec": 244}], "roadway": "Ferries", "county": ""}}, {"type": "Feature", "geometry": {"type": "Point", "coordinates": [-119.303858, 46.255074]}, "properties": {"name": "I-182 at MP 2.38: Queensgate Avenue", "kind": "live", "directions": [{"snapshot": "https://images.wsdot.wa.gov/SC/182vc00238.jpg", "video": null, "label": "", "facing": "Both directions", "refresh_sec": 346}], "roadway": "I-182", "county": ""}}, {"type": "Feature", "geometry": {"type": "Point", "coordinates": [-119.275273, 46.258715]}, "properties": {"name": "I-182 at MP 4.3: Jadwin Avenue", "kind": "live", "directions": [{"snapshot": "https://images.wsdot.wa.gov/sc/182VC00435.jpg", "video": null, "label": "", "facing": "Both directions", "refresh_sec": 278}], "roadway": "I-182", "county": ""}}, {"type": "Feature", "geometry": {"type": "Point", "coordinates": [-119.221707, 46.275051]}, "properties": {"name": "I-182 at MP 7.3: Road 100", "kind": "live", "directions": [{"snapshot": "https://images.wsdot.wa.gov/sc/182vc00731.jpg", "video": null, "label": "", "facing": "Both directions", "refresh_sec": 119}], "roadway": "I-182", "county": ""}}, {"type": "Feature", "geometry": {"type": "Point", "coordinates": [-119.183549, 46.265841]}, "properties": {"name": "I-182 at MP 9.2: Road 68", "kind": "live", "directions": [{"snapshot": "https://images.wsdot.wa.gov/sc/182VC00927.jpg", "video": null, "label": "", "facing": "Both directions", "refresh_sec": 278}], "roadway": "I-182", "county": ""}}, {"type": "Feature", "geometry": {"type": "Point", "coordinates": [-122.552192, 45.606196]}, "properties": {"name": "I-205 at MP 27.4: SR-14 Interchange", "kind": "live", "directions": [{"snapshot": "https://images.wsdot.wa.gov/sw/205vc02740.jpg", "video": null, "label": "", "facing": "Both directions", "refresh_sec": 119}], "roadway": "I-205", "county": ""}}, {"type": "Feature", "geometry": {"type": "Point", "coordinates": [-122.559988, 45.62118]}, "properties": {"name": "I-205 at MP 28.3: Mill Plain Blvd Camera", "kind": "live", "directions": [{"snapshot": "https://images.wsdot.wa.gov/sw/205vc02834.jpg", "video": null, "label": "1", "facing": "Both directions", "refresh_sec": 119}, {"snapshot": "https://images.wsdot.wa.gov/sw/205vc02835.jpg", "video": null, "label": "2", "facing": "Both directions", "refresh_sec": 116}], "roadway": "I-205", "county": ""}}, {"type": "Feature", "geometry": {"type": "Point", "coordinates": [-122.559139, 45.619417]}, "properties": {"name": "I-205 at MP 28.2: Millplain Ramp Meter SB", "kind": "live", "directions": [{"snapshot": "https://images.wsdot.wa.gov/sw/205vc02827.jpg", "video": null, "label": "", "facing": "Both directions", "refresh_sec": 119}], "roadway": "I-205", "county": ""}}, {"type": "Feature", "geometry": {"type": "Point", "coordinates": [-122.557008, 45.620871]}, "properties": {"name": "I-205 at MP 28.4: Mill Plain Interchange", "kind": "live", "directions": [{"snapshot": "https://images.wsdot.wa.gov/sw/205vc02840.jpg", "video": null, "label": "", "facing": "Both directions", "refresh_sec": 119}], "roadway": "I-205", "county": ""}}, {"type": "Feature", "geometry": {"type": "Point", "coordinates": [-122.560933, 45.635549]}, "properties": {"name": "I-205 at MP 29.3: 18th St", "kind": "live", "directions": [{"snapshot": "https://images.wsdot.wa.gov/sw/205vc02936.jpg", "video": null, "label": "", "facing": "Both directions", "refresh_sec": 119}], "roadway": "I-205", "county": ""}}, {"type": "Feature", "geometry": {"type": "Point", "coordinates": [-122.559333, 45.624602]}, "properties": {"name": "I-205 at MP 28.6: 6th St", "kind": "live", "directions": [{"snapshot": "https://images.wsdot.wa.gov/sw/205vc02863.jpg", "video": null, "label": "", "facing": "Both directions", "refresh_sec": 119}], "roadway": "I-205", "county": ""}}, {"type": "Feature", "geometry": {"type": "Point", "coordinates": [-122.560071, 45.632864]}, "properties": {"name": "I-205 at MP 29.1: 15th St", "kind": "live", "directions": [{"snapshot": "https://images.wsdot.wa.gov/sw/205vc02913.jpg", "video": null, "label": "", "facing": "Both directions", "refresh_sec": 119}], "roadway": "I-205", "county": ""}}, {"type": "Feature", "geometry": {"type": "Point", "coordinates": [-122.558861, 45.624099]}, "properties": {"name": "I-205 at MP 28.6: Millplain Ramp Meter NB", "kind": "live", "directions": [{"snapshot": "https://images.wsdot.wa.gov/sw/205vc02862.jpg", "video": null, "label": "", "facing": "Both directions", "refresh_sec": 119}], "roadway": "I-205", "county": ""}}, {"type": "Feature", "geometry": {"type": "Point", "coordinates": [-122.566753, 45.649538]}, "properties": {"name": "I-205 at MP 30.3: 39th St SB", "kind": "live", "directions": [{"snapshot": "https://images.wsdot.wa.gov/sw/205vc03036.jpg", "video": null, "label": "", "facing": "Both directions", "refresh_sec": 119}], "roadway": "I-205", "county": ""}}, {"type": "Feature", "geometry": {"type": "Point", "coordinates": [-122.565947, 45.64995]}, "properties": {"name": "I-205 at MP 30.3: 39th St NB", "kind": "live", "directions": [{"snapshot": "https://images.wsdot.wa.gov/sw/205vc03038.jpg", "video": null, "label": "", "facing": "Both directions", "refresh_sec": 119}], "roadway": "I-205", "county": ""}}, {"type": "Feature", "geometry": {"type": "Point", "coordinates": [-122.563993, 45.642218]}, "properties": {"name": "I-205 at MP 29.7: Burton Rd", "kind": "live", "directions": [{"snapshot": "https://images.wsdot.wa.gov/sw/205vc02976.jpg", "video": null, "label": "", "facing": "Both directions", "refresh_sec": 119}], "roadway": "I-205", "county": ""}}, {"type": "Feature", "geometry": {"type": "Point", "coordinates": [-122.570395, 45.657208]}, "properties": {"name": "I-205 at MP 30.9: SR 500 Camera 1", "kind": "live", "directions": [{"snapshot": "https://images.wsdot.wa.gov/sw/205vc03090.jpg", "video": null, "label": "", "facing": "Both directions", "refresh_sec": 119}], "roadway": "I-205", "county": ""}}, {"type": "Feature", "geometry": {"type": "Point", "coordinates": [-122.572657, 45.65956]}, "properties": {"name": "I-205 at MP 31.1: SR 500 / 4th Plain Ramp Meter", "kind": "live", "directions": [{"snapshot": "https://images.wsdot.wa.gov/sw/205vc03111.jpg", "video": null, "label": "", "facing": "Both directions", "refresh_sec": 118}], "roadway": "I-205", "county": ""}}, {"type": "Feature", "geometry": {"type": "Point", "coordinates": [-122.571529, 45.654298]}, "properties": {"name": "I-205 at MP 30.8: SR 500 SB Ramp Meter", "kind": "live", "directions": [{"snapshot": "https://images.wsdot.wa.gov/sw/205vc03076.jpg", "video": null, "label": "", "facing": "Both directions", "refresh_sec": 119}], "roadway": "I-205", "county": ""}}, {"type": "Feature", "geometry": {"type": "Point", "coordinates": [-122.571108, 45.657217]}, "properties": {"name": "I-205 at MP 30.9: SR 500 Camera 2", "kind": "live", "directions": [{"snapshot": "https://images.wsdot.wa.gov/sw/205vc03093.jpg", "video": null, "label": "", "facing": "Both directions", "refresh_sec": 114}], "roadway": "I-205", "county": ""}}, {"type": "Feature", "geometry": {"type": "Point", "coordinates": [-122.578088, 45.66429]}, "properties": {"name": "I-205 at MP 31.5: 58th St", "kind": "live", "directions": [{"snapshot": "https://images.wsdot.wa.gov/sw/205vc03153.jpg", "video": null, "label": "", "facing": "Both directions", "refresh_sec": 119}], "roadway": "I-205", "county": ""}}, {"type": "Feature", "geometry": {"type": "Point", "coordinates": [-122.592433, 45.682033]}, "properties": {"name": "I-205 at MP 32.9: South of Padden Parkway", "kind": "live", "directions": [{"snapshot": "https://images.wsdot.wa.gov/sw/205vc03295.jpg", "video": null, "label": "", "facing": "Both directions", "refresh_sec": 119}], "roadway": "I-205", "county": ""}}, {"type": "Feature", "geometry": {"type": "Point", "coordinates": [-122.586184, 45.678719]}, "properties": {"name": "I-205 at MP 32.6: 78th St", "kind": "live", "directions": [{"snapshot": "https://images.wsdot.wa.gov/sw/205vc03260.jpg", "video": null, "label": "", "facing": "Both directions", "refresh_sec": 119}], "roadway": "I-205", "county": ""}}, {"type": "Feature", "geometry": {"type": "Point", "coordinates": [-122.596402, 45.684052]}, "properties": {"name": "I-205 at MP 33.2: North of Padden Parkway", "kind": "live", "directions": [{"snapshot": "https://images.wsdot.wa.gov/sw/205vc03321.jpg", "video": null, "label": "", "facing": "Both directions", "refresh_sec": 119}], "roadway": "I-205", "county": ""}}, {"type": "Feature", "geometry": {"type": "Point", "coordinates": [-122.611031, 45.695796]}, "properties": {"name": "SR 205 at MP 34.3: St Johns Rd", "kind": "live", "directions": [{"snapshot": "https://images.wsdot.wa.gov/sw/205vc03434.jpg", "video": null, "label": "", "facing": "Both directions", "refresh_sec": 119}], "roadway": "I-205", "county": ""}}, {"type": "Feature", "geometry": {"type": "Point", "coordinates": [-122.60178, 45.6874]}, "properties": {"name": "I-205 at MP 33.6: Andresen Rd", "kind": "live", "directions": [{"snapshot": "https://images.wsdot.wa.gov/sw/205vc03356.jpg", "video": null, "label": "", "facing": "Both directions", "refresh_sec": 119}], "roadway": "I-205", "county": ""}}, {"type": "Feature", "geometry": {"type": "Point", "coordinates": [-122.640009, 45.712136]}, "properties": {"name": "I-205 at MP 36.1: Salmon Creek", "kind": "live", "directions": [{"snapshot": "https://images.wsdot.wa.gov/sw/205vc03615.jpg", "video": null, "label": "", "facing": "Both directions", "refresh_sec": 118}], "roadway": "I-205", "county": ""}}, {"type": "Feature", "geometry": {"type": "Point", "coordinates": [-122.647799, 45.716687]}, "properties": {"name": "I-205 at MP 36.8: 134th St", "kind": "live", "directions": [{"snapshot": "https://images.wsdot.wa.gov/sw/205vc03688.jpg", "video": null, "label": "", "facing": "Southbound", "refresh_sec": 119}], "roadway": "I-205", "county": ""}}, {"type": "Feature", "geometry": {"type": "Point", "coordinates": [-122.65417, 45.722571]}, "properties": {"name": "I-205 at MP 37: 139th St", "kind": "live", "directions": [{"snapshot": "https://images.wsdot.wa.gov/sw/205vc03708.jpg", "video": null, "label": "", "facing": "Both directions", "refresh_sec": 119}], "roadway": "I-205", "county": ""}}, {"type": "Feature", "geometry": {"type": "Point", "coordinates": [-122.651671, 45.719707]}, "properties": {"name": "I-205 at MP 36.9: 20th Ave", "kind": "live", "directions": [{"snapshot": "https://images.wsdot.wa.gov/sw/205vc03693.jpg", "video": null, "label": "", "facing": "Both directions", "refresh_sec": 119}], "roadway": "I-205", "county": ""}}, {"type": "Feature", "geometry": {"type": "Point", "coordinates": [-122.648338, 45.716668]}, "properties": {"name": "I-205 at MP 36.7: SB 134th St Ramp Meter", "kind": "live", "directions": [{"snapshot": "https://images.wsdot.wa.gov/sw/205vc03670.jpg", "video": null, "label": "", "facing": "Both directions", "refresh_sec": 119}], "roadway": "I-205", "county": ""}}, {"type": "Feature", "geometry": {"type": "Point", "coordinates": [-122.258334, 47.462588]}, "properties": {"name": "I-405 at MP 0.3: Southcenter", "kind": "live", "directions": [{"snapshot": "https://images.wsdot.wa.gov/nw/405vc00034.jpg", "video": null, "label": "", "facing": "Both directions", "refresh_sec": 119}], "roadway": "I-405", "county": ""}}, {"type": "Feature", "geometry": {"type": "Point", "coordinates": [-122.254269, 47.461764]}, "properties": {"name": "I-405 at MP 0.5: Andover Park W", "kind": "live", "directions": [{"snapshot": "https://images.wsdot.wa.gov/nw/405vc00052.jpg", "video": null, "label": "", "facing": "Both directions", "refresh_sec": 119}], "roadway": "I-405", "county": ""}}, {"type": "Feature", "geometry": {"type": "Point", "coordinates": [-122.247465, 47.463134]}, "properties": {"name": "I-405 at MP 0.8: West Valley Hwy (SR 181)", "kind": "live", "directions": [{"snapshot": "https://images.wsdot.wa.gov/nw/405vc00088.jpg", "video": null, "label": "", "facing": "Both directions", "refresh_sec": 119}], "roadway": "I-405", "county": ""}}, {"type": "Feature", "geometry": {"type": "Point", "coordinates": [-122.237351, 47.466314]}, "properties": {"name": "I-405 at MP 1.4: Longacres Dr", "kind": "live", "directions": [{"snapshot": "https://images.wsdot.wa.gov/nw/405vc00140.jpg", "video": null, "label": "", "facing": "Both directions", "refresh_sec": 119}], "roadway": "I-405", "county": ""}}, {"type": "Feature", "geometry": {"type": "Point", "coordinates": [-122.232709, 47.467122]}, "properties": {"name": "I-405 at MP 1.6: Oakesdale Ave", "kind": "live", "directions": [{"snapshot": "https://images.wsdot.wa.gov/nw/405vc00163.jpg", "video": null, "label": "", "facing": "Both directions", "refresh_sec": 119}], "roadway": "I-405", "county": ""}}, {"type": "Feature", "geometry": {"type": "Point", "coordinates": [-122.215182, 47.467855]}, "properties": {"name": "I-405 at MP 2.4: SR 167, East", "kind": "live", "directions": [{"snapshot": "https://images.wsdot.wa.gov/nw/405vc00245.jpg", "video": null, "label": "", "facing": "Both directions", "refresh_sec": 119}], "roadway": "I-405", "county": ""}}, {"type": "Feature", "geometry": {"type": "Point", "coordinates": [-122.218697, 47.468042]}, "properties": {"name": "I-405 at MP 2.2: SR 167 Interchange", "kind": "live", "directions": [{"snapshot": "https://images.wsdot.wa.gov/nw/405vc00229.jpg", "video": null, "label": "", "facing": "Both directions", "refresh_sec": 129}], "roadway": "I-405", "county": ""}}, {"type": "Feature", "geometry": {"type": "Point", "coordinates": [-122.208325, 47.468789]}, "properties": {"name": "I-405 at MP 2.7: Talbot Rd S", "kind": "live", "directions": [{"snapshot": "https://images.wsdot.wa.gov/nw/405vc00277.jpg", "video": null, "label": "", "facing": "Both directions", "refresh_sec": 114}], "roadway": "I-405", "county": ""}}, {"type": "Feature", "geometry": {"type": "Point", "coordinates": [-122.204335, 47.471498]}, "properties": {"name": "I-405 at MP 3: S 10th St", "kind": "live", "directions": [{"snapshot": "https://images.wsdot.wa.gov/nw/405vc00304.jpg", "video": null, "label": "", "facing": "Both directions", "refresh_sec": 119}], "roadway": "I-405", "county": ""}}, {"type": "Feature", "geometry": {"type": "Point", "coordinates": [-122.203266, 47.477447]}, "properties": {"name": "I-405 at MP 3.4: S 5th St", "kind": "live", "directions": [{"snapshot": "https://images.wsdot.wa.gov/nw/405vc00345.jpg", "video": null, "label": "", "facing": "Both directions", "refresh_sec": 119}], "roadway": "I-405", "county": ""}}, {"type": "Feature", "geometry": {"type": "Point", "coordinates": [-122.200979, 47.479852]}, "properties": {"name": "I-405 at MP 3.6: S 3rd St", "kind": "live", "directions": [{"snapshot": "https://images.wsdot.wa.gov/nw/405vc00364.jpg", "video": null, "label": "", "facing": "Both directions", "refresh_sec": 119}], "roadway": "I-405", "county": ""}}, {"type": "Feature", "geometry": {"type": "Point", "coordinates": [-122.207721, 47.468396]}, "properties": {"name": "I-405 at MP 2.8: Talbot Rd, NB Ramp", "kind": "live", "directions": [{"snapshot": "https://images.wsdot.wa.gov/nw/405vc00279.jpg", "video": null, "label": "", "facing": "Both directions", "refresh_sec": 130}], "roadway": "I-405", "county": ""}}, {"type": "Feature", "geometry": {"type": "Point", "coordinates": [-122.194756, 47.485715]}, "properties": {"name": "I-405 at MP 4.1: SR 169 Interchange", "kind": "live", "directions": [{"snapshot": "https://images.wsdot.wa.gov/nw/405vc00417.jpg", "video": null, "label": "", "facing": "Northbound", "refresh_sec": 119}], "roadway": "I-405", "county": ""}}, {"type": "Feature", "geometry": {"type": "Point", "coordinates": [-122.195618, 47.48363]}, "properties": {"name": "I-405 at MP 4: SR 169, NB Ramps", "kind": "live", "directions": [{"snapshot": "https://images.wsdot.wa.gov/nw/405vc00402.jpg", "video": null, "label": "", "facing": "Both directions", "refresh_sec": 119}], "roadway": "I-405", "county": ""}}, {"type": "Feature", "geometry": {"type": "Point", "coordinates": [-122.191893, 47.493607]}, "properties": {"name": "I-405 at MP 4.7: Sunset Blvd", "kind": "live", "directions": [{"snapshot": "https://images.wsdot.wa.gov/nw/405vc00475.jpg", "video": null, "label": "", "facing": "Both directions", "refresh_sec": 119}], "roadway": "I-405", "county": ""}}, {"type": "Feature", "geometry": {"type": "Point", "coordinates": [-122.196941, 47.484093]}, "properties": {"name": "I-405 at MP 4: SR 169, SB Ramps", "kind": "live", "directions": [{"snapshot": "https://images.wsdot.wa.gov/nw/405vc00397.jpg", "video": null, "label": "", "facing": "Both directions", "refresh_sec": 119}], "roadway": "I-405", "county": ""}}, {"type": "Feature", "geometry": {"type": "Point", "coordinates": [-122.196327, 47.501978]}, "properties": {"name": "I-405 at MP 5.3: NE Park Dr", "kind": "live", "directions": [{"snapshot": "https://images.wsdot.wa.gov/nw/405vc00537.jpg", "video": null, "label": "", "facing": "Both directions", "refresh_sec": 119}], "roadway": "I-405", "county": ""}}, {"type": "Feature", "geometry": {"type": "Point", "coordinates": [-122.198589, 47.512402]}, "properties": {"name": "I-405 at MP 6: NE 24th St", "kind": "live", "directions": [{"snapshot": "https://images.wsdot.wa.gov/nw/405vc00602.jpg", "video": null, "label": "", "facing": "Both directions", "refresh_sec": 118}], "roadway": "I-405", "county": ""}}, {"type": "Feature", "geometry": {"type": "Point", "coordinates": [-122.198357, 47.518595]}, "properties": {"name": "I-405 at MP 6.5: NE 30th St", "kind": "live", "directions": [{"snapshot": "https://images.wsdot.wa.gov/nw/405vc00652.jpg", "video": null, "label": "", "facing": "Both directions", "refresh_sec": 117}], "roadway": "I-405", "county": ""}}, {"type": "Feature", "geometry": {"type": "Point", "coordinates": [-122.197369, 47.53226]}, "properties": {"name": "I-405 at MP 7.4: NE 44th St", "kind": "live", "directions": [{"snapshot": "https://images.wsdot.wa.gov/nw/405vc00747.jpg", "video": null, "label": "", "facing": "Both directions", "refresh_sec": 119}], "roadway": "I-405", "county": ""}}, {"type": "Feature", "geometry": {"type": "Point", "coordinates": [-122.194676, 47.539458]}, "properties": {"name": "I-405 at MP 8: SE 71st St", "kind": "live", "directions": [{"snapshot": "https://images.wsdot.wa.gov/nw/405vc00800.jpg", "video": null, "label": "", "facing": "Both directions", "refresh_sec": 114}], "roadway": "I-405", "county": ""}}, {"type": "Feature", "geometry": {"type": "Point", "coordinates": [-122.195396, 47.545226]}, "properties": {"name": "I-405 at MP 8.4: SE 64th St", "kind": "live", "directions": [{"snapshot": "https://images.wsdot.wa.gov/nw/405vc00840.jpg", "video": null, "label": "", "facing": "Both directions", "refresh_sec": 113}], "roadway": "I-405", "county": ""}}, {"type": "Feature", "geometry": {"type": "Point", "coordinates": [-122.193595, 47.552146]}, "properties": {"name": "I-405 at MP 8.8: SE 59th St", "kind": "live", "directions": [{"snapshot": "https://images.wsdot.wa.gov/nw/405vc00889.jpg", "video": null, "label": "", "facing": "Both directions", "refresh_sec": 119}], "roadway": "I-405", "county": ""}}, {"type": "Feature", "geometry": {"type": "Point", "coordinates": [-122.189986, 47.556913]}, "properties": {"name": "I-405 at MP 9.2: 112th Ave SE", "kind": "live", "directions": [{"snapshot": "https://images.wsdot.wa.gov/nw/405vc00926.jpg", "video": null, "label": "", "facing": "Both directions", "refresh_sec": 119}], "roadway": "I-405", "county": ""}}, {"type": "Feature", "geometry": {"type": "Point", "coordinates": [-122.179611, 47.567436]}, "properties": {"name": "I-405 at MP 10.1: Coal Creek Pkwy", "kind": "live", "directions": [{"snapshot": "https://images.wsdot.wa.gov/nw/405vc01016.jpg", "video": null, "label": "", "facing": "Both directions", "refresh_sec": 119}], "roadway": "I-405", "county": ""}}, {"type": "Feature", "geometry": {"type": "Point", "coordinates": [-122.186536, 47.564612]}, "properties": {"name": "I-405 at MP 9.8: SE 46th St", "kind": "live", "directions": [{"snapshot": "https://images.wsdot.wa.gov/nw/405vc00980.jpg", "video": null, "label": "", "facing": "Both directions", "refresh_sec": 119}], "roadway": "I-405", "county": ""}}, {"type": "Feature", "geometry": {"type": "Point", "coordinates": [-122.174119, 47.57939]}, "properties": {"name": "I-405 at MP 11: I-90 Interchange SE Quad", "kind": "live", "directions": [{"snapshot": "https://images.wsdot.wa.gov/nw/405vc01105.jpg", "video": null, "label": "", "facing": "Both directions", "refresh_sec": 119}], "roadway": "I-405", "county": ""}}, {"type": "Feature", "geometry": {"type": "Point", "coordinates": [-122.174141, 47.579539]}, "properties": {"name": "I-405 at MP 11: I-90 Interchange (Factoria)", "kind": "live", "directions": [{"snapshot": "https://images.wsdot.wa.gov/nw/405vc01106.jpg", "video": null, "label": "", "facing": "Both directions", "refresh_sec": 119}], "roadway": "I-405", "county": ""}}, {"type": "Feature", "geometry": {"type": "Point", "coordinates": [-122.176496, 47.573861]}, "properties": {"name": "I-405 at MP 10.6: SE 40th St", "kind": "live", "directions": [{"snapshot": "https://images.wsdot.wa.gov/nw/405vc01066.jpg", "video": null, "label": "", "facing": "Both directions", "refresh_sec": 119}], "roadway": "I-405", "county": ""}}, {"type": "Feature", "geometry": {"type": "Point", "coordinates": [-122.175711, 47.58111]}, "properties": {"name": "I-405 at MP 11.1: I-90 Interchange, NW Quadrant", "kind": "live", "directions": [{"snapshot": "https://images.wsdot.wa.gov/nw/405vc01118.jpg", "video": null, "label": "", "facing": "Both directions", "refresh_sec": 126}], "roadway": "I-405", "county": ""}}, {"type": "Feature", "geometry": {"type": "Point", "coordinates": [-122.17503, 47.582028]}, "properties": {"name": "I-405 at MP 11.2: Richards Rd", "kind": "live", "directions": [{"snapshot": "https://images.wsdot.wa.gov/nw/405vc01121.jpg", "video": null, "label": "", "facing": "Both directions", "refresh_sec": 119}], "roadway": "I-405", "county": ""}}, {"type": "Feature", "geometry": {"type": "Point", "coordinates": [-122.181121, 47.590911]}, "properties": {"name": "I-405 at MP 11.9: SE 20th St, SB", "kind": "live", "directions": [{"snapshot": "https://images.wsdot.wa.gov/nw/405vc01194.jpg", "video": null, "label": "", "facing": "Southbound", "refresh_sec": 119}], "roadway": "I-405", "county": ""}}, {"type": "Feature", "geometry": {"type": "Point", "coordinates": [-122.181529, 47.600898]}, "properties": {"name": "I-405 at MP 12.6: SE 9th Pl", "kind": "live", "directions": [{"snapshot": "https://images.wsdot.wa.gov/nw/405vc01261.jpg", "video": null, "label": "", "facing": "Northbound", "refresh_sec": 119}], "roadway": "I-405", "county": ""}}, {"type": "Feature", "geometry": {"type": "Point", "coordinates": [-122.184775, 47.604222]}, "properties": {"name": "I-405 at MP 12.8: SE 8th St", "kind": "live", "directions": [{"snapshot": "https://images.wsdot.wa.gov/nw/405vc01286.jpg", "video": null, "label": "", "facing": "Both directions", "refresh_sec": 119}], "roadway": "I-405", "county": ""}}, {"type": "Feature", "geometry": {"type": "Point", "coordinates": [-122.180485, 47.592178]}, "properties": {"name": "I-405 at MP 12: SE 20th St, NB", "kind": "live", "directions": [{"snapshot": "https://images.wsdot.wa.gov/nw/405vc01198.jpg", "video": null, "label": "", "facing": "Both directions", "refresh_sec": 128}], "roadway": "I-405", "county": ""}}, {"type": "Feature", "geometry": {"type": "Point", "coordinates": [-122.187935, 47.608672]}, "properties": {"name": "I-405 @ MP 13.2: SE 1st St", "kind": "live", "directions": [{"snapshot": "https://images.wsdot.wa.gov/nw/405vc01321.jpg", "video": null, "label": "", "facing": "Both directions", "refresh_sec": 119}], "roadway": "I-405", "county": ""}}, {"type": "Feature", "geometry": {"type": "Point", "coordinates": [-122.188484, 47.612034]}, "properties": {"name": "I-405 @ MP 13.5: NE 2nd Pl", "kind": "live", "directions": [{"snapshot": "https://images.wsdot.wa.gov/nw/405vc01345.jpg", "video": null, "label": "", "facing": "Both directions", "refresh_sec": 119}], "roadway": "I-405", "county": ""}}, {"type": "Feature", "geometry": {"type": "Point", "coordinates": [-122.188434, 47.613423]}, "properties": {"name": "I-405 at MP 13.5: NE 4th St", "kind": "live", "directions": [{"snapshot": "https://images.wsdot.wa.gov/nw/405vc01355.jpg", "video": null, "label": "", "facing": "Both directions", "refresh_sec": 119}], "roadway": "I-405", "county": ""}}, {"type": "Feature", "geometry": {"type": "Point", "coordinates": [-122.188479, 47.615308]}, "properties": {"name": "I-405 at MP 13.6: NE 6th St", "kind": "live", "directions": [{"snapshot": "https://images.wsdot.wa.gov/nw/405vc01368.jpg", "video": null, "label": "", "facing": "Both directions", "refresh_sec": 129}], "roadway": "I-405", "county": ""}}, {"type": "Feature", "geometry": {"type": "Point", "coordinates": [-122.188068, 47.616353]}, "properties": {"name": "I-405 at MP 13.7: NE 7th St, East", "kind": "live", "directions": [{"snapshot": "https://images.wsdot.wa.gov/nw/405vc01370.jpg", "video": null, "label": "", "facing": "Both directions", "refresh_sec": 120}], "roadway": "I-405", "county": ""}}, {"type": "Feature", "geometry": {"type": "Point", "coordinates": [-122.189355, 47.615841]}, "properties": {"name": "I-405 at MP 13.7: NE 7th St, West", "kind": "live", "directions": [{"snapshot": "https://images.wsdot.wa.gov/nw/405vc01374.jpg", "video": null, "label": "", "facing": "Both directions", "refresh_sec": 117}], "roadway": "I-405", "county": ""}}, {"type": "Feature", "geometry": {"type": "Point", "coordinates": [-122.188531, 47.617487]}, "properties": {"name": "I-405 at MP 13.8: NE 8th St", "kind": "live", "directions": [{"snapshot": "https://images.wsdot.wa.gov/nw/405vc01383.jpg", "video": null, "label": "", "facing": "Both directions", "refresh_sec": 119}], "roadway": "I-405", "county": ""}}, {"type": "Feature", "geometry": {"type": "Point", "coordinates": [-122.188549, 47.618801]}, "properties": {"name": "I-405 at MP 13.9: NE 9th St", "kind": "live", "directions": [{"snapshot": "https://images.wsdot.wa.gov/nw/405vc01392.jpg", "video": null, "label": "", "facing": "Both directions", "refresh_sec": 119}], "roadway": "I-405", "county": ""}}, {"type": "Feature", "geometry": {"type": "Point", "coordinates": [-122.188554, 47.619677]}, "properties": {"name": "I-405 at MP 13.9: NE 10th St", "kind": "live", "directions": [{"snapshot": "https://images.wsdot.wa.gov/nw/405vc01398.jpg", "video": null, "label": "", "facing": "Both directions", "refresh_sec": 130}], "roadway": "I-405", "county": ""}}, {"type": "Feature", "geometry": {"type": "Point", "coordinates": [-122.188554, 47.623931]}, "properties": {"name": "I-405 at MP 14.2: NE 14th St", "kind": "live", "directions": [{"snapshot": "https://images.wsdot.wa.gov/nw/405vc01427.jpg", "video": null, "label": "", "facing": "Both directions", "refresh_sec": 119}], "roadway": "I-405", "county": ""}}, {"type": "Feature", "geometry": {"type": "Point", "coordinates": [-122.188465, 47.628397]}, "properties": {"name": "I-405 at MP 14.5: NE 20th St", "kind": "live", "directions": [{"snapshot": "https://images.wsdot.wa.gov/nw/405vc01458.jpg", "video": null, "label": "", "facing": "Both directions", "refresh_sec": 119}], "roadway": "I-405", "county": ""}}, {"type": "Feature", "geometry": {"type": "Point", "coordinates": [-122.188235, 47.629968]}, "properties": {"name": "I-405 at MP 14.6: NE 22nd St", "kind": "live", "directions": [{"snapshot": "https://images.wsdot.wa.gov/nw/405vc01469.jpg", "video": null, "label": "", "facing": "Both directions", "refresh_sec": 119}], "roadway": "I-405", "county": ""}}, {"type": "Feature", "geometry": {"type": "Point", "coordinates": [-122.187799, 47.631932]}, "properties": {"name": "I-405 at MP 14.8: SR 520 Interchange", "kind": "live", "directions": [{"snapshot": "https://images.wsdot.wa.gov/nw/405vc01483.jpg", "video": null, "label": "", "facing": "Both directions", "refresh_sec": 119}], "roadway": "I-405", "county": ""}}, {"type": "Feature", "geometry": {"type": "Point", "coordinates": [-122.188242, 47.63304]}, "properties": {"name": "I-405 at MP 14.9: Northup Way", "kind": "live", "directions": [{"snapshot": "https://images.wsdot.wa.gov/nw/405vc01492.jpg", "video": null, "label": "", "facing": "Both directions", "refresh_sec": 119}], "roadway": "I-405", "county": ""}}, {"type": "Feature", "geometry": {"type": "Point", "coordinates": [-122.186765, 47.64515]}, "properties": {"name": "I-405 at MP 15.7: NE 39th St", "kind": "live", "directions": [{"snapshot": "https://images.wsdot.wa.gov/nw/405vc01575.jpg", "video": null, "label": "", "facing": "Both directions", "refresh_sec": 117}], "roadway": "I-405", "county": ""}}, {"type": "Feature", "geometry": {"type": "Point", "coordinates": [-122.186842, 47.652999]}, "properties": {"name": "I-405 at MP 16.3: NE 48th St", "kind": "live", "directions": [{"snapshot": "https://images.wsdot.wa.gov/nw/405vc01629.jpg", "video": null, "label": "", "facing": "Both directions", "refresh_sec": 119}], "roadway": "I-405", "county": ""}}, {"type": "Feature", "geometry": {"type": "Point", "coordinates": [-122.188042, 47.66843]}, "properties": {"name": "I-405 at MP 17.3: NE 70th,SB Ramps", "kind": "live", "directions": [{"snapshot": "https://images.wsdot.wa.gov/nw/405vc01736.jpg", "video": null, "label": "", "facing": "Both directions", "refresh_sec": 119}], "roadway": "I-405", "county": ""}}, {"type": "Feature", "geometry": {"type": "Point", "coordinates": [-122.18687, 47.659686]}, "properties": {"name": "I-405 at MP 16.7: NE 59th St", "kind": "live", "directions": [{"snapshot": "https://images.wsdot.wa.gov/nw/405vc01675.jpg", "video": null, "label": "", "facing": "Both directions", "refresh_sec": 127}], "roadway": "I-405", "county": ""}}, {"type": "Feature", "geometry": {"type": "Point", "coordinates": [-122.187438, 47.669376]}, "properties": {"name": "I-405 at MP 17.4: NE 70th Pl", "kind": "live", "directions": [{"snapshot": "https://images.wsdot.wa.gov/nw/405vc01742.jpg", "video": null, "label": "", "facing": "Both directions", "refresh_sec": 119}], "roadway": "I-405", "county": ""}}, {"type": "Feature", "geometry": {"type": "Point", "coordinates": [-122.186797, 47.669802]}, "properties": {"name": "I-405 at MP 17.4: NE 70th,NB Ramps", "kind": "live", "directions": [{"snapshot": "https://images.wsdot.wa.gov/nw/405vc01745.jpg", "video": null, "label": "", "facing": "Both directions", "refresh_sec": 119}], "roadway": "I-405", "county": ""}}, {"type": "Feature", "geometry": {"type": "Point", "coordinates": [-122.186199, 47.672264]}, "properties": {"name": "I-405 at MP 17.6: NE 75th St", "kind": "live", "directions": [{"snapshot": "https://images.wsdot.wa.gov/nw/405vc01762.jpg", "video": null, "label": "", "facing": "Both directions", "refresh_sec": 209}], "roadway": "I-405", "county": ""}}, {"type": "Feature", "geometry": {"type": "Point", "coordinates": [-122.186473, 47.67903]}, "properties": {"name": "I-405 @ MP 18.1: NE 85th St, SB Ramps", "kind": "live", "directions": [{"snapshot": "https://images.wsdot.wa.gov/nw/405vc01812.jpg", "video": null, "label": "", "facing": "Both directions", "refresh_sec": 120}], "roadway": "I-405", "county": ""}}, {"type": "Feature", "geometry": {"type": "Point", "coordinates": [-122.185064, 47.677334]}, "properties": {"name": "I-405 at MP 18: NE 85th, SW Quad", "kind": "live", "directions": [{"snapshot": "https://images.wsdot.wa.gov/nw/405vc01808.jpg", "video": null, "label": "", "facing": "Both directions", "stale_since": "2026-05-10T18:27:09Z"}], "roadway": "I-405", "county": ""}}, {"type": "Feature", "geometry": {"type": "Point", "coordinates": [-122.183902, 47.680384]}, "properties": {"name": "I-405 at MP 18.2: NE 85th, NE Quad", "kind": "live", "directions": [{"snapshot": "https://images.wsdot.wa.gov/nw/405vc01820.jpg", "video": null, "label": "", "facing": "Both directions", "stale_since": "2026-05-10T18:25:13Z"}], "roadway": "I-405", "county": ""}}, {"type": "Feature", "geometry": {"type": "Point", "coordinates": [-122.181787, 47.688432]}, "properties": {"name": "I-405 at MP 18.7: NE 98th St", "kind": "live", "directions": [{"snapshot": "https://images.wsdot.wa.gov/nw/405vc01876.jpg", "video": null, "label": "", "facing": "Both directions", "refresh_sec": 129}], "roadway": "I-405", "county": ""}}, {"type": "Feature", "geometry": {"type": "Point", "coordinates": [-122.181355, 47.690013]}, "properties": {"name": "I-405 at MP 18.8: NE 100th St", "kind": "live", "directions": [{"snapshot": "https://images.wsdot.wa.gov/nw/405vc01887.jpg", "video": null, "label": "", "facing": "Both directions", "refresh_sec": 119}], "roadway": "I-405", "county": ""}}, {"type": "Feature", "geometry": {"type": "Point", "coordinates": [-122.180868, 47.6965]}, "properties": {"name": "I-405 at MP 19.3: NE 108th St", "kind": "live", "directions": [{"snapshot": "https://images.wsdot.wa.gov/nw/405vc01932.jpg", "video": null, "label": "", "facing": "Both directions", "refresh_sec": 119}], "roadway": "I-405", "county": ""}}, {"type": "Feature", "geometry": {"type": "Point", "coordinates": [-122.179256, 47.703676]}, "properties": {"name": "I-405 at MP 19.8: NE 116th St, SPUI", "kind": "live", "directions": [{"snapshot": "https://images.wsdot.wa.gov/nw/405vc01983.jpg", "video": null, "label": "", "facing": "Both directions", "refresh_sec": 119}], "roadway": "I-405", "county": ""}}, {"type": "Feature", "geometry": {"type": "Point", "coordinates": [-122.179383, 47.704342]}, "properties": {"name": "I-405 at MP 19.8: NE 116th St", "kind": "live", "directions": [{"snapshot": "https://images.wsdot.wa.gov/nw/405vc01987.jpg", "video": null, "label": "", "facing": "Both directions", "refresh_sec": 130}], "roadway": "I-405", "county": ""}}, {"type": "Feature", "geometry": {"type": "Point", "coordinates": [-122.182268, 47.709988]}, "properties": {"name": "I-405 at MP 20.3: NE 124th St", "kind": "live", "directions": [{"snapshot": "https://images.wsdot.wa.gov/nw/405vc02030.jpg", "video": null, "label": "", "facing": "Both directions", "refresh_sec": 119}], "roadway": "I-405", "county": ""}}, {"type": "Feature", "geometry": {"type": "Point", "coordinates": [-122.180646, 47.707268]}, "properties": {"name": "I-405 at MP 20.1: NE 120th St", "kind": "live", "directions": [{"snapshot": "https://images.wsdot.wa.gov/nw/405vc02010.jpg", "video": null, "label": "", "facing": "Both directions", "refresh_sec": 119}], "roadway": "I-405", "county": ""}}, {"type": "Feature", "geometry": {"type": "Point", "coordinates": [-122.180591, 47.709627]}, "properties": {"name": "I-405 at MP 20.2: NE 124th St, NB Ramps", "kind": "live", "directions": [{"snapshot": "https://images.wsdot.wa.gov/nw/405vc02021.jpg", "video": null, "label": "", "facing": "Other", "refresh_sec": 116}], "roadway": "I-405", "county": ""}}, {"type": "Feature", "geometry": {"type": "Point", "coordinates": [-122.186322, 47.711293]}, "properties": {"name": "I-405 at MP 20.4: NE 124th St, SB Ramps", "kind": "live", "directions": [{"snapshot": "https://images.wsdot.wa.gov/nw/405vc02041.jpg", "video": null, "label": "", "facing": "Other", "refresh_sec": 117}], "roadway": "I-405", "county": ""}}, {"type": "Feature", "geometry": {"type": "Point", "coordinates": [-122.185129, 47.714982]}, "properties": {"name": "I-405 at MP 20.6: NE 128th St", "kind": "live", "directions": [{"snapshot": "https://images.wsdot.wa.gov/nw/405vc02066.jpg", "video": null, "label": "", "facing": "Both directions", "refresh_sec": 119}], "roadway": "I-405", "county": ""}}, {"type": "Feature", "geometry": {"type": "Point", "coordinates": [-122.188321, 47.731342]}, "properties": {"name": "I-405 at MP 21.8: NE 144th St", "kind": "live", "directions": [{"snapshot": "https://images.wsdot.wa.gov/nw/405vc02182.jpg", "video": null, "label": "", "facing": "Both directions", "refresh_sec": 129}], "roadway": "I-405", "county": ""}}, {"type": "Feature", "geometry": {"type": "Point", "coordinates": [-122.189593, 47.724313]}, "properties": {"name": "I-405 at MP 21.3: NE 139th St", "kind": "live", "directions": [{"snapshot": "https://images.wsdot.wa.gov/nw/405vc02132.jpg", "video": null, "label": "", "facing": "Both directions", "refresh_sec": 128}], "roadway": "I-405", "county": ""}}, {"type": "Feature", "geometry": {"type": "Point", "coordinates": [-122.188253, 47.719121]}, "properties": {"name": "I-405 at MP 21: NE 132nd St, West", "kind": "live", "directions": [{"snapshot": "https://images.wsdot.wa.gov/nw/405vc02103.jpg", "video": null, "label": "", "facing": "Both directions", "refresh_sec": 119}], "roadway": "I-405", "county": ""}}, {"type": "Feature", "geometry": {"type": "Point", "coordinates": [-122.187617, 47.719595]}, "properties": {"name": "I-405 at MP 20.9: NE 132nd St, East", "kind": "live", "directions": [{"snapshot": "https://images.wsdot.wa.gov/nw/405vc02093.jpg", "video": null, "label": "", "facing": "Both directions", "refresh_sec": 128}], "roadway": "I-405", "county": ""}}, {"type": "Feature", "geometry": {"type": "Point", "coordinates": [-122.186913, 47.74199]}, "properties": {"name": "I-405 at MP 22.5: NE 160th St", "kind": "live", "directions": [{"snapshot": "https://images.wsdot.wa.gov/nw/405vc02256.jpg", "video": null, "label": "", "facing": "Both directions", "refresh_sec": 119}], "roadway": "I-405", "county": ""}}, {"type": "Feature", "geometry": {"type": "Point", "coordinates": [-122.184242, 47.757772]}, "properties": {"name": "I-405 at MP 23.6: SR 522 Interchange", "kind": "live", "directions": [{"snapshot": "https://images.wsdot.wa.gov/nw/405vc02371.jpg", "video": null, "label": "", "facing": "Both directions", "refresh_sec": 119}], "roadway": "I-405", "county": ""}}, {"type": "Feature", "geometry": {"type": "Point", "coordinates": [-122.186192, 47.753527]}, "properties": {"name": "I-405 at MP 23.3: NE 175th St", "kind": "live", "directions": [{"snapshot": "https://images.wsdot.wa.gov/nw/405vc02337.jpg", "video": null, "label": "", "facing": "Both directions", "refresh_sec": 119}], "roadway": "I-405", "county": ""}}, {"type": "Feature", "geometry": {"type": "Point", "coordinates": [-122.186767, 47.745893]}, "properties": {"name": "I-405 at MP 22.8: NE 163rd St", "kind": "live", "directions": [{"snapshot": "https://images.wsdot.wa.gov/nw/405vc02283.jpg", "video": null, "label": "", "facing": "Both directions", "refresh_sec": 119}], "roadway": "I-405", "county": ""}}, {"type": "Feature", "geometry": {"type": "Point", "coordinates": [-122.186566, 47.746699]}, "properties": {"name": "I-405 at MP 22.8: NE 164th St", "kind": "live", "directions": [{"snapshot": "https://images.wsdot.wa.gov/nw/405vc02288.jpg", "video": null, "label": "", "facing": "Both directions", "refresh_sec": 119}], "roadway": "I-405", "county": ""}}, {"type": "Feature", "geometry": {"type": "Point", "coordinates": [-122.189462, 47.769271]}, "properties": {"name": "I-405 at MP 24.5: NE 195th St", "kind": "live", "directions": [{"snapshot": "https://images.wsdot.wa.gov/nw/405vc02452.jpg", "video": null, "label": "", "facing": "Both directions", "refresh_sec": 119}], "roadway": "I-405", "county": ""}}, {"type": "Feature", "geometry": {"type": "Point", "coordinates": [-122.184178, 47.761354]}, "properties": {"name": "I-405 at MP 23.9: NE 183rd St", "kind": "live", "directions": [{"snapshot": "https://images.wsdot.wa.gov/nw/405vc02393.jpg", "video": null, "label": "", "facing": "Both directions", "refresh_sec": 119}], "roadway": "I-405", "county": ""}}, {"type": "Feature", "geometry": {"type": "Point", "coordinates": [-122.195618, 47.783062]}, "properties": {"name": "I-405 at MP 25.5: 236th St SE, SB", "kind": "live", "directions": [{"snapshot": "https://images.wsdot.wa.gov/nw/405vc02553.jpg", "video": null, "label": "", "facing": "Southbound", "refresh_sec": 119}], "roadway": "I-405", "county": ""}}, {"type": "Feature", "geometry": {"type": "Point", "coordinates": [-122.191715, 47.777519]}, "properties": {"name": "I-405 at MP 25.1: 243rd St SE", "kind": "live", "directions": [{"snapshot": "https://images.wsdot.wa.gov/nw/405vc02510.jpg", "video": null, "label": "", "facing": "Both directions", "refresh_sec": 119}], "roadway": "I-405", "county": ""}}, {"type": "Feature", "geometry": {"type": "Point", "coordinates": [-122.195425, 47.784748]}, "properties": {"name": "I-405 at MP 25.6: 236th St SE, NB", "kind": "live", "directions": [{"snapshot": "https://images.wsdot.wa.gov/nw/405vc02563.jpg", "video": null, "label": "", "facing": "Northbound", "refresh_sec": 119}], "roadway": "I-405", "county": ""}}, {"type": "Feature", "geometry": {"type": "Point", "coordinates": [-122.200127, 47.787856]}, "properties": {"name": "I-405 at MP 25.9: 232nd St SE", "kind": "live", "directions": [{"snapshot": "https://images.wsdot.wa.gov/nw/405vc02594.jpg", "video": null, "label": "", "facing": "Both directions", "refresh_sec": 119}], "roadway": "I-405", "county": ""}}, {"type": "Feature", "geometry": {"type": "Point", "coordinates": [-122.212162, 47.793975]}, "properties": {"name": "I-405 at MP 26.6: SR 527, Westside", "kind": "live", "directions": [{"snapshot": "https://images.wsdot.wa.gov/nw/405vc02665.jpg", "video": null, "label": "", "facing": "Both directions", "refresh_sec": 131}], "roadway": "I-405", "county": ""}}, {"type": "Feature", "geometry": {"type": "Point", "coordinates": [-122.204233, 47.789947]}, "properties": {"name": "I-405 at MP 26.1: 230th St SE", "kind": "live", "directions": [{"snapshot": "https://images.wsdot.wa.gov/nw/405vc02618.jpg", "video": null, "label": "", "facing": "Both directions", "refresh_sec": 119}], "roadway": "I-405", "county": ""}}, {"type": "Feature", "geometry": {"type": "Point", "coordinates": [-122.213975, 47.794892]}, "properties": {"name": "I-405 at MP 26.7: SR 527, Median", "kind": "live", "directions": [{"snapshot": "https://images.wsdot.wa.gov/nw/405vc02674.jpg", "video": null, "label": "", "facing": "Both directions", "refresh_sec": 119}], "roadway": "I-405", "county": ""}}, {"type": "Feature", "geometry": {"type": "Point", "coordinates": [-122.225619, 47.801376]}, "properties": {"name": "I-405 at MP 27.4: 216th St SE, SB", "kind": "live", "directions": [{"snapshot": "https://images.wsdot.wa.gov/nw/405vc02745.jpg", "video": null, "label": "", "facing": "Both directions", "refresh_sec": 119}], "roadway": "I-405", "county": ""}}, {"type": "Feature", "geometry": {"type": "Point", "coordinates": [-122.219855, 47.797719]}, "properties": {"name": "I-405 at MP 27: 220th St SE", "kind": "live", "directions": [{"snapshot": "https://images.wsdot.wa.gov/nw/405vc02708.jpg", "video": null, "label": "", "facing": "Both directions", "refresh_sec": 119}], "roadway": "I-405", "county": ""}}, {"type": "Feature", "geometry": {"type": "Point", "coordinates": [-122.225764, 47.803847]}, "properties": {"name": "I-405 at MP 27.6: 213th St SE", "kind": "live", "directions": [{"snapshot": "https://images.wsdot.wa.gov/nw/405vc02760.jpg", "video": null, "label": "", "facing": "Northbound", "refresh_sec": 119}], "roadway": "I-405", "county": ""}}, {"type": "Feature", "geometry": {"type": "Point", "coordinates": [-122.224748, 47.801935]}, "properties": {"name": "I-405 at MP 27.4: 216th St SE, NB", "kind": "live", "directions": [{"snapshot": "https://images.wsdot.wa.gov/nw/405vc02746.jpg", "video": null, "label": "", "facing": "Northbound", "refresh_sec": 128}], "roadway": "I-405", "county": ""}}, {"type": "Feature", "geometry": {"type": "Point", "coordinates": [-122.231287, 47.812238]}, "properties": {"name": "I-405 at MP 28.2: 204th St SE, SB", "kind": "live", "directions": [{"snapshot": "https://images.wsdot.wa.gov/nw/405vc02826.jpg", "video": null, "label": "", "facing": "Both directions", "refresh_sec": 131}], "roadway": "I-405", "county": ""}}, {"type": "Feature", "geometry": {"type": "Point", "coordinates": [-122.229059, 47.810142]}, "properties": {"name": "I-405 at MP 28: Richmond Rd", "kind": "live", "directions": [{"snapshot": "https://images.wsdot.wa.gov/nw/405vc02806.jpg", "video": null, "label": "", "facing": "Both directions", "refresh_sec": 131}], "roadway": "I-405", "county": ""}}, {"type": "Feature", "geometry": {"type": "Point", "coordinates": [-122.231877, 47.814341]}, "properties": {"name": "I-405 at MP 28.3: 202nd St SE, NB", "kind": "live", "directions": [{"snapshot": "https://images.wsdot.wa.gov/nw/405vc02838.jpg", "video": null, "label": "", "facing": "Both directions", "refresh_sec": 129}], "roadway": "I-405", "county": ""}}, {"type": "Feature", "geometry": {"type": "Point", "coordinates": [-122.227628, 47.807405]}, "properties": {"name": "I-405 at MP 27.8: 210th St SE, SB", "kind": "live", "directions": [{"snapshot": "https://images.wsdot.wa.gov/nw/405vc02786.jpg", "video": null, "label": "", "facing": "Both directions", "refresh_sec": 130}], "roadway": "I-405", "county": ""}}, {"type": "Feature", "geometry": {"type": "Point", "coordinates": [-122.241328, 47.819541]}, "properties": {"name": "I-405 at MP 28.9: Damson Rd", "kind": "live", "directions": [{"snapshot": "https://images.wsdot.wa.gov/nw/405vc02895.jpg", "video": null, "label": "", "facing": "Both directions", "refresh_sec": 119}], "roadway": "I-405", "county": ""}}, {"type": "Feature", "geometry": {"type": "Point", "coordinates": [-122.246334, 47.822019]}, "properties": {"name": "I-405 at MP 29.2: Bing Rd", "kind": "live", "directions": [{"snapshot": "https://images.wsdot.wa.gov/nw/405vc02924.jpg", "video": null, "label": "", "facing": "Both directions", "refresh_sec": 119}], "roadway": "I-405", "county": ""}}, {"type": "Feature", "geometry": {"type": "Point", "coordinates": [-122.251487, 47.823859]}, "properties": {"name": "I-405 at MP 29.5: Filbert Rd", "kind": "live", "directions": [{"snapshot": "https://images.wsdot.wa.gov/nw/405vc02951.jpg", "video": null, "label": "", "facing": "Both directions", "refresh_sec": 119}], "roadway": "I-405", "county": ""}}, {"type": "Feature", "geometry": {"type": "Point", "coordinates": [-122.672831, 45.622355]}, "properties": {"name": "I-5 at MP 0.32: Interstate Bridge", "kind": "live", "directions": [{"snapshot": "https://images.wsdot.wa.gov/sw/005vc00032.jpg", "video": null, "label": "", "facing": "Both directions", "refresh_sec": 119}], "roadway": "I-5", "county": ""}}, {"type": "Feature", "geometry": {"type": "Point", "coordinates": [-122.671489, 45.624778]}, "properties": {"name": "I-5 at MP 0.44: SR 14 / Washington Way Ramp Meter", "kind": "live", "directions": [{"snapshot": "https://images.wsdot.wa.gov/sw/005vc00044.jpg", "video": null, "label": "", "facing": "Southbound", "refresh_sec": 119}], "roadway": "I-5", "county": ""}}, {"type": "Feature", "geometry": {"type": "Point", "coordinates": [-122.665186, 45.631599]}, "properties": {"name": "I-5 at MP 1.1: Mill Plain Blvd", "kind": "live", "directions": [{"snapshot": "https://images.wsdot.wa.gov/sw/005vc00105.jpg", "video": null, "label": "", "facing": "Both directions", "refresh_sec": 119}], "roadway": "I-5", "county": ""}}, {"type": "Feature", "geometry": {"type": "Point", "coordinates": [-122.670705, 45.624047]}, "properties": {"name": "I-5 at MP 0.5: SR 14 Interchange", "kind": "live", "directions": [{"snapshot": "https://images.wsdot.wa.gov/sw/005vc00050.jpg", "video": null, "label": "", "facing": "Both directions", "refresh_sec": 119}], "roadway": "I-5", "county": ""}}, {"type": "Feature", "geometry": {"type": "Point", "coordinates": [-122.662112, 45.636344]}, "properties": {"name": "I-5 at MP 1.4: 19th Street", "kind": "live", "directions": [{"snapshot": "https://images.wsdot.wa.gov/sw/005vc00141.jpg", "video": null, "label": "", "facing": "Both directions", "refresh_sec": 119}], "roadway": "I-5", "county": ""}}, {"type": "Feature", "geometry": {"type": "Point", "coordinates": [-122.665708, 45.628138]}, "properties": {"name": "I-5 at MP 0.81: Tower View", "kind": "live", "directions": [{"snapshot": "https://images.wsdot.wa.gov/sw/005vc00081.jpg", "video": null, "label": "", "facing": "Both directions", "refresh_sec": 119}], "roadway": "I-5", "county": ""}}, {"type": "Feature", "geometry": {"type": "Point", "coordinates": [-122.662068, 45.642159]}, "properties": {"name": "I-5 at MP 1.8: 29th St", "kind": "live", "directions": [{"snapshot": "https://images.wsdot.wa.gov/sw/005vc00182.jpg", "video": null, "label": "", "facing": "Both directions", "refresh_sec": 119}], "roadway": "I-5", "county": ""}}, {"type": "Feature", "geometry": {"type": "Point", "coordinates": [-122.661152, 45.638774]}, "properties": {"name": "I-5 at MP 1.6: 4th Plain Overpass", "kind": "live", "directions": [{"snapshot": "https://images.wsdot.wa.gov/sw/005vc00159.jpg", "video": null, "label": "", "facing": "Both directions", "refresh_sec": 119}], "roadway": "I-5", "county": ""}}, {"type": "Feature", "geometry": {"type": "Point", "coordinates": [-122.660346, 45.64988]}, "properties": {"name": "I-5 at MP 2.35: 39th St", "kind": "live", "directions": [{"snapshot": "https://images.wsdot.wa.gov/sw/005vc00235.jpg", "video": null, "label": "Other 1", "facing": "Other", "refresh_sec": 119}, {"snapshot": "https://images.wsdot.wa.gov/sw/005vc00236.jpg", "video": null, "label": "EB", "facing": "Eastbound", "refresh_sec": 119}, {"snapshot": "https://images.wsdot.wa.gov/sw/005vc00237.jpg", "video": null, "label": "Other 2", "facing": "Other", "refresh_sec": 119}, {"snapshot": "https://images.wsdot.wa.gov/sw/005vc00238.jpg", "video": null, "label": "SB", "facing": "Southbound", "refresh_sec": 119}, {"snapshot": "https://images.wsdot.wa.gov/sw/005vc00239.jpg", "video": null, "label": "WB", "facing": "Westbound", "refresh_sec": 119}], "roadway": "I-5", "county": ""}}, {"type": "Feature", "geometry": {"type": "Point", "coordinates": [-122.662055, 45.646505]}, "properties": {"name": "I-5 at MP 2.1: 35th St", "kind": "live", "directions": [{"snapshot": "https://images.wsdot.wa.gov/sw/005vc00212.jpg", "video": null, "label": "", "facing": "Both directions", "refresh_sec": 139}], "roadway": "I-5", "county": ""}}, {"type": "Feature", "geometry": {"type": "Point", "coordinates": [-122.662298, 45.639614]}, "properties": {"name": "I-5 at MP 1.6: Fourth Plain Blvd", "kind": "live", "directions": [{"snapshot": "https://images.wsdot.wa.gov/sw/005vc00164.jpg", "video": null, "label": "", "facing": "Both directions", "refresh_sec": 119}], "roadway": "I-5", "county": ""}}, {"type": "Feature", "geometry": {"type": "Point", "coordinates": [-122.663691, 45.655956]}, "properties": {"name": "I-5 at MP 2.8: Discovery Trail Crossing", "kind": "live", "directions": [{"snapshot": "https://images.wsdot.wa.gov/sw/005vc00279.jpg", "video": null, "label": "", "facing": "Both directions", "refresh_sec": 104}], "roadway": "I-5", "county": ""}}, {"type": "Feature", "geometry": {"type": "Point", "coordinates": [-122.665898, 45.659428]}, "properties": {"name": "I-5 at MP 3.2: Main St", "kind": "live", "directions": [{"snapshot": "https://images.wsdot.wa.gov/sw/005vc00320.jpg", "video": null, "label": "", "facing": "Both directions", "refresh_sec": 139}], "roadway": "I-5", "county": ""}}, {"type": "Feature", "geometry": {"type": "Point", "coordinates": [-122.666306, 45.66257]}, "properties": {"name": "I-5 at MP 3.3: Main St North", "kind": "live", "directions": [{"snapshot": "https://images.wsdot.wa.gov/sw/005vc00325.jpg", "video": null, "label": "", "facing": "Both directions", "refresh_sec": 119}], "roadway": "I-5", "county": ""}}, {"type": "Feature", "geometry": {"type": "Point", "coordinates": [-122.665394, 45.657999]}, "properties": {"name": "I-5 at MP 2.9: Main St. Ramp meter", "kind": "live", "directions": [{"snapshot": "https://images.wsdot.wa.gov/sw/005vc00296.jpg", "video": null, "label": "", "facing": "Southbound", "refresh_sec": 119}], "roadway": "I-5", "county": ""}}, {"type": "Feature", "geometry": {"type": "Point", "coordinates": [-122.667275, 45.667139]}, "properties": {"name": "I-5 at MP 3.6: S of 63rd St", "kind": "live", "directions": [{"snapshot": "https://images.wsdot.wa.gov/sw/005vc00359.jpg", "video": null, "label": "", "facing": "Both directions", "refresh_sec": 119}], "roadway": "I-5", "county": ""}}, {"type": "Feature", "geometry": {"type": "Point", "coordinates": [-122.665273, 45.670681]}, "properties": {"name": "I-5 at MP 3.7: N of 63rd St", "kind": "live", "directions": [{"snapshot": "https://images.wsdot.wa.gov/sw/005vc00375.jpg", "video": null, "label": "", "facing": "Both directions", "refresh_sec": 119}], "roadway": "I-5", "county": ""}}, {"type": "Feature", "geometry": {"type": "Point", "coordinates": [-122.664833, 45.676593]}, "properties": {"name": "I-5 at MP 4.2: 78th St", "kind": "live", "directions": [{"snapshot": "https://images.wsdot.wa.gov/sw/005vc00425.jpg", "video": null, "label": "", "facing": "Both directions", "refresh_sec": 119}], "roadway": "I-5", "county": ""}}, {"type": "Feature", "geometry": {"type": "Point", "coordinates": [-122.664888, 45.676769]}, "properties": {"name": "I-5 at MP 4.2: 78th St. Ramp meter", "kind": "live", "directions": [{"snapshot": "https://images.wsdot.wa.gov/sw/005vc00426.jpg", "video": null, "label": "", "facing": "Southbound", "refresh_sec": 116}], "roadway": "I-5", "county": ""}}, {"type": "Feature", "geometry": {"type": "Point", "coordinates": [-122.662437, 45.691424]}, "properties": {"name": "I-5 at MP 5.4: 99th St", "kind": "live", "directions": [{"snapshot": "https://images.wsdot.wa.gov/sw/005vc00546.jpg", "video": null, "label": "", "facing": "Both directions", "refresh_sec": 119}], "roadway": "I-5", "county": ""}}, {"type": "Feature", "geometry": {"type": "Point", "coordinates": [-122.664716, 45.686294]}, "properties": {"name": "I-5 at MP 4.9: 86th St", "kind": "live", "directions": [{"snapshot": "https://images.wsdot.wa.gov/sw/005vc00491.jpg", "video": null, "label": "", "facing": "Both directions", "refresh_sec": 119}], "roadway": "I-5", "county": ""}}, {"type": "Feature", "geometry": {"type": "Point", "coordinates": [-122.654598, 45.705228]}, "properties": {"name": "I-5 at MP 6.3: Salmon Creek", "kind": "live", "directions": [{"snapshot": "https://images.wsdot.wa.gov/sw/005vc00631.jpg", "video": null, "label": "", "facing": "Both directions", "refresh_sec": 119}], "roadway": "I-5", "county": ""}}, {"type": "Feature", "geometry": {"type": "Point", "coordinates": [-122.652666, 45.713117]}, "properties": {"name": "I-5 at MP 6.9: 129th St", "kind": "live", "directions": [{"snapshot": "https://images.wsdot.wa.gov/sw/005vc00691.jpg", "video": null, "label": "", "facing": "Both directions", "refresh_sec": 119}], "roadway": "I-5", "county": ""}}, {"type": "Feature", "geometry": {"type": "Point", "coordinates": [-122.655895, 45.718132]}, "properties": {"name": "I-5 at MP 7.3: 134th St", "kind": "live", "directions": [{"snapshot": "https://images.wsdot.wa.gov/sw/005vc00730.jpg", "video": null, "label": "", "facing": "Both directions", "refresh_sec": 118}], "roadway": "I-5", "county": ""}}, {"type": "Feature", "geometry": {"type": "Point", "coordinates": [-122.656843, 45.732743]}, "properties": {"name": "I-5 at MP 8.2: 154th St", "kind": "live", "directions": [{"snapshot": "https://images.wsdot.wa.gov/sw/005vc00824.jpg", "video": null, "label": "", "facing": "Both directions", "refresh_sec": 119}], "roadway": "I-5", "county": ""}}, {"type": "Feature", "geometry": {"type": "Point", "coordinates": [-122.661346, 45.744836]}, "properties": {"name": "I-5 at MP 9.1: S of 179th St", "kind": "live", "directions": [{"snapshot": "https://images.wsdot.wa.gov/sw/005vc00912.jpg", "video": null, "label": "", "facing": "Both directions", "refresh_sec": 119}], "roadway": "I-5", "county": ""}}, {"type": "Feature", "geometry": {"type": "Point", "coordinates": [-122.66372, 45.753907]}, "properties": {"name": "I-5 at MP 9.7: N of 179th St", "kind": "live", "directions": [{"snapshot": "https://images.wsdot.wa.gov/sw/005vc00976.jpg", "video": null, "label": "", "facing": "Both directions", "refresh_sec": 119}], "roadway": "I-5", "county": ""}}, {"type": "Feature", "geometry": {"type": "Point", "coordinates": [-122.666833, 45.76507]}, "properties": {"name": "I-5 at MP 10.8: 199th St", "kind": "live", "directions": [{"snapshot": "https://images.wsdot.wa.gov/sw/005vc01080.jpg", "video": null, "label": "", "facing": "Both directions", "refresh_sec": 119}], "roadway": "I-5", "county": ""}}, {"type": "Feature", "geometry": {"type": "Point", "coordinates": [-122.670027, 45.77219]}, "properties": {"name": "I-5 at MP 11: 209th St", "kind": "live", "directions": [{"snapshot": "https://images.wsdot.wa.gov/sw/005vc01103.jpg", "video": null, "label": "", "facing": "Both directions", "refresh_sec": 119}], "roadway": "I-5", "county": ""}}, {"type": "Feature", "geometry": {"type": "Point", "coordinates": [-122.675898, 45.793157]}, "properties": {"name": "I-5 at MP 12.4: Carty Rd", "kind": "live", "directions": [{"snapshot": "https://images.wsdot.wa.gov/sw/005vc01248.jpg", "video": null, "label": "", "facing": "Both directions", "refresh_sec": 119}], "roadway": "I-5", "county": ""}}, {"type": "Feature", "geometry": {"type": "Point", "coordinates": [-122.671498, 45.780944]}, "properties": {"name": "I-5 NB at MP 11.6: SR 502 on ramp", "kind": "live", "directions": [{"snapshot": "https://images.wsdot.wa.gov/sw/005vc01165.jpg", "video": null, "label": "", "facing": "Both directions", "refresh_sec": 119}], "roadway": "I-5", "county": ""}}, {"type": "Feature", "geometry": {"type": "Point", "coordinates": [-122.674086, 45.781481]}, "properties": {"name": "I-5 SB at MP 11.7: SR 502 on ramp", "kind": "live", "directions": [{"snapshot": "https://images.wsdot.wa.gov/sw/005vc01176.jpg", "video": null, "label": "", "facing": "Both directions", "refresh_sec": 119}], "roadway": "I-5", "county": ""}}, {"type": "Feature", "geometry": {"type": "Point", "coordinates": [-122.680874, 45.805397]}, "properties": {"name": "I-5 at MP 13.4: Dolan Rd", "kind": "live", "directions": [{"snapshot": "https://images.wsdot.wa.gov/sw/005vc01346.jpg", "video": null, "label": "", "facing": "Both directions", "refresh_sec": 119}], "roadway": "I-5", "county": ""}}, {"type": "Feature", "geometry": {"type": "Point", "coordinates": [-122.685338, 45.816086]}, "properties": {"name": "I-5 at MP 14.2: Pioneer St", "kind": "live", "directions": [{"snapshot": "https://images.wsdot.wa.gov/sw/005vc01420.jpg", "video": null, "label": "", "facing": "Both directions", "refresh_sec": 119}], "roadway": "I-5", "county": ""}}, {"type": "Feature", "geometry": {"type": "Point", "coordinates": [-122.699895, 45.844804]}, "properties": {"name": "I-5 at MP 16.2: Weigh Station", "kind": "live", "directions": [{"snapshot": "https://images.wsdot.wa.gov/sw/005vc01628.jpg", "video": null, "label": "", "facing": "Both directions", "refresh_sec": 119}], "roadway": "I-5", "county": ""}}, {"type": "Feature", "geometry": {"type": "Point", "coordinates": [-122.703336, 45.851872]}, "properties": {"name": "I-5 at MP 16.8: Exit 16 SB", "kind": "live", "directions": [{"snapshot": "https://images.wsdot.wa.gov/sw/005vc01682.jpg", "video": null, "label": "", "facing": "Both directions", "refresh_sec": 139}], "roadway": "I-5", "county": ""}}, {"type": "Feature", "geometry": {"type": "Point", "coordinates": [-122.701693, 45.85269]}, "properties": {"name": "I-5 at MP 16.8: Exit 16 NB", "kind": "live", "directions": [{"snapshot": "https://images.wsdot.wa.gov/sw/005vc01683.jpg", "video": null, "label": "", "facing": "Both directions", "refresh_sec": 119}], "roadway": "I-5", "county": ""}}, {"type": "Feature", "geometry": {"type": "Point", "coordinates": [-122.712392, 45.873784]}, "properties": {"name": "I-5 at MP 18.2: Paradise Point", "kind": "live", "directions": [{"snapshot": "https://images.wsdot.wa.gov/sw/005vc01820.jpg", "video": null, "label": "", "facing": "Both directions", "refresh_sec": 342}], "roadway": "I-5", "county": ""}}, {"type": "Feature", "geometry": {"type": "Point", "coordinates": [-122.742011, 45.904498]}, "properties": {"name": "I-5 at MP 21: Woodland", "kind": "live", "directions": [{"snapshot": "https://images.wsdot.wa.gov/sw/005vc02098.jpg", "video": null, "label": "", "facing": "Both directions", "refresh_sec": 351}], "roadway": "I-5", "county": ""}}, {"type": "Feature", "geometry": {"type": "Point", "coordinates": [-122.74335, 45.905358]}, "properties": {"name": "I-5 at MP 21.10: Woodland SB Signal", "kind": "live", "directions": [{"snapshot": "https://images.wsdot.wa.gov/sw/005vc02110.jpg", "video": null, "label": "Other", "facing": "Other", "refresh_sec": 348}, {"snapshot": "https://images.wsdot.wa.gov/sw/005vc02111.jpg", "video": null, "label": "NB", "facing": "Northbound", "refresh_sec": 391}, {"snapshot": "https://images.wsdot.wa.gov/sw/005vc02112.jpg", "video": null, "label": "EB", "facing": "Eastbound", "refresh_sec": 366}, {"snapshot": "https://images.wsdot.wa.gov/sw/005vc02113.jpg", "video": null, "label": "SB", "facing": "Southbound", "refresh_sec": 359}, {"snapshot": "https://images.wsdot.wa.gov/sw/005vc02114.jpg", "video": null, "label": "WB", "facing": "Westbound", "refresh_sec": 278}], "roadway": "I-5", "county": ""}}, {"type": "Feature", "geometry": {"type": "Point", "coordinates": [-122.741381, 45.906149]}, "properties": {"name": "I-5 at MP 21.20: Woodland NB Signal", "kind": "live", "directions": [{"snapshot": "https://images.wsdot.wa.gov/sw/005vc02120.jpg", "video": null, "label": "Other", "facing": "Other", "refresh_sec": 398}, {"snapshot": "https://images.wsdot.wa.gov/sw/005vc02121.jpg", "video": null, "label": "SB 1", "facing": "Southbound", "refresh_sec": 392}, {"snapshot": "https://images.wsdot.wa.gov/sw/005vc02122.jpg", "video": null, "label": "WB", "facing": "Westbound", "refresh_sec": 362}, {"snapshot": "https://images.wsdot.wa.gov/sw/005vc02123.jpg", "video": null, "label": "EB", "facing": "Eastbound", "refresh_sec": 409}, {"snapshot": "https://images.wsdot.wa.gov/sw/005vc02124.jpg", "video": null, "label": "SB 2", "facing": "Southbound", "refresh_sec": 368}], "roadway": "I-5", "county": ""}}, {"type": "Feature", "geometry": {"type": "Point", "coordinates": [-122.759504, 45.932512]}, "properties": {"name": "I-5 at MP 23.11: Dike Road", "kind": "live", "directions": [{"snapshot": "https://images.wsdot.wa.gov/sw/005vc02311.jpg", "video": null, "label": "", "facing": "Both directions", "stale_since": "2026-05-13T16:19:15Z"}], "roadway": "I-5", "county": ""}}, {"type": "Feature", "geometry": {"type": "Point", "coordinates": [-122.870997, 46.092129]}, "properties": {"name": "I-5 at MP 35.8: Owl Creek", "kind": "live", "directions": [{"snapshot": "https://images.wsdot.wa.gov/sw/005vc03588.jpg", "video": null, "label": "", "facing": "Both directions", "refresh_sec": 391}], "roadway": "I-5", "county": ""}}, {"type": "Feature", "geometry": {"type": "Point", "coordinates": [-122.878949, 46.10673]}, "properties": {"name": "I-5 at MP 36.9: SR 432 Interchange", "kind": "live", "directions": [{"snapshot": "https://images.wsdot.wa.gov/sw/005vc03696.jpg", "video": null, "label": "", "facing": "Both directions", "refresh_sec": 119}], "roadway": "I-5", "county": ""}}, {"type": "Feature", "geometry": {"type": "Point", "coordinates": [-122.876486, 46.547498]}, "properties": {"name": "I-5 at MP 68.4: US 12 Interchange", "kind": "live", "directions": [{"snapshot": "https://images.wsdot.wa.gov/sw/005vc06842.jpg", "video": null, "label": "", "facing": "Both directions", "refresh_sec": 119}], "roadway": "I-5", "county": ""}}, {"type": "Feature", "geometry": {"type": "Point", "coordinates": [-122.877084, 46.561795]}, "properties": {"name": "I-5 at MP 69.4: Koontz Rd", "kind": "live", "directions": [{"snapshot": "https://images.wsdot.wa.gov/sw/005vc06939.jpg", "video": null, "label": "", "facing": "Both directions", "refresh_sec": 120}], "roadway": "I-5", "county": ""}}, {"type": "Feature", "geometry": {"type": "Point", "coordinates": [-122.912974, 46.611245]}, "properties": {"name": "I-5 at MP 73.3", "kind": "live", "directions": [{"snapshot": "https://images.wsdot.wa.gov/sw/005vc07330.jpg", "video": null, "label": "", "facing": "Both directions", "refresh_sec": 139}], "roadway": "I-5", "county": ""}}, {"type": "Feature", "geometry": {"type": "Point", "coordinates": [-122.906854, 46.60571]}, "properties": {"name": "I-5 at MP 72.8: Rush Rd", "kind": "live", "directions": [{"snapshot": "https://images.wsdot.wa.gov/sw/005vc07280.jpg", "video": null, "label": "", "facing": "Both directions", "refresh_sec": 119}], "roadway": "I-5", "county": ""}}, {"type": "Feature", "geometry": {"type": "Point", "coordinates": [-122.932829, 46.62639]}, "properties": {"name": "I-5 at MP 74.7: Labree Rd", "kind": "live", "directions": [{"snapshot": "https://images.wsdot.wa.gov/sw/005vc07470.jpg", "video": null, "label": "", "facing": "Both directions", "refresh_sec": 119}], "roadway": "I-5", "county": ""}}, {"type": "Feature", "geometry": {"type": "Point", "coordinates": [-122.958695, 46.646215]}, "properties": {"name": "I-5 at MP 76.5: 13th St", "kind": "live", "directions": [{"snapshot": "https://images.wsdot.wa.gov/sw/005vc07650.jpg", "video": null, "label": "", "facing": "Both directions", "refresh_sec": 119}], "roadway": "I-5", "county": ""}}, {"type": "Feature", "geometry": {"type": "Point", "coordinates": [-122.97805, 46.66069]}, "properties": {"name": "I-5 at MP 78: SR 6 Interchange", "kind": "live", "directions": [{"snapshot": "https://images.wsdot.wa.gov/sw/005vc07798.jpg", "video": null, "label": "", "facing": "Both directions", "refresh_sec": 139}], "roadway": "I-5", "county": ""}}, {"type": "Feature", "geometry": {"type": "Point", "coordinates": [-122.980527, 46.66654]}, "properties": {"name": "I-5 at MP 78.3: West St", "kind": "live", "directions": [{"snapshot": "https://images.wsdot.wa.gov/sw/005vc07839.jpg", "video": null, "label": "", "facing": "Both directions", "refresh_sec": 119}], "roadway": "I-5", "county": ""}}, {"type": "Feature", "geometry": {"type": "Point", "coordinates": [-122.976135, 46.67569]}, "properties": {"name": "I-5 at MP 79.10: Chamber Way", "kind": "live", "directions": [{"snapshot": "https://images.wsdot.wa.gov/sw/005vc07900.jpg", "video": null, "label": "", "facing": "Both directions", "refresh_sec": 119}], "roadway": "I-5", "county": ""}}, {"type": "Feature", "geometry": {"type": "Point", "coordinates": [-122.976135, 46.67581]}, "properties": {"name": "I-5 at MP 79.10: Chamber Way", "kind": "live", "directions": [{"snapshot": "https://images.wsdot.wa.gov/sw/005vc07910.jpg", "video": null, "label": "Both", "facing": "Both directions", "refresh_sec": 119}, {"snapshot": "https://images.wsdot.wa.gov/sw/005vc07912.jpg", "video": null, "label": "NB", "facing": "Northbound", "refresh_sec": 119}, {"snapshot": "https://images.wsdot.wa.gov/sw/005vc07913.jpg", "video": null, "label": "EB", "facing": "Eastbound", "refresh_sec": 119}, {"snapshot": "https://images.wsdot.wa.gov/sw/005vc07914.jpg", "video": null, "label": "SB", "facing": "Southbound", "refresh_sec": 119}], "roadway": "I-5", "county": ""}}, {"type": "Feature", "geometry": {"type": "Point", "coordinates": [-122.975495, 46.675762]}, "properties": {"name": "I-5 at MP 79.10: Chamber Way", "kind": "live", "directions": [{"snapshot": "https://images.wsdot.wa.gov/sw/005vc07911.jpg", "video": null, "label": "", "facing": "Westbound", "refresh_sec": 119}], "roadway": "I-5", "county": ""}}, {"type": "Feature", "geometry": {"type": "Point", "coordinates": [-122.970714, 46.687819]}, "properties": {"name": "I-5 at MP 80: Chehalis", "kind": "live", "directions": [{"snapshot": "https://images.wsdot.wa.gov/sw/005vc08000.jpg", "video": null, "label": "", "facing": "Both directions", "refresh_sec": 120}], "roadway": "I-5", "county": ""}}, {"type": "Feature", "geometry": {"type": "Point", "coordinates": [-122.971159, 46.69883]}, "properties": {"name": "I-5 at MP 80.76", "kind": "live", "directions": [{"snapshot": "https://images.wsdot.wa.gov/sw/005vc08076.jpg", "video": null, "label": "", "facing": "Both directions", "refresh_sec": 119}], "roadway": "I-5", "county": ""}}, {"type": "Feature", "geometry": {"type": "Point", "coordinates": [-122.973675, 46.706698]}, "properties": {"name": "I-5 at MP 81.3: Mellen Couplet", "kind": "live", "directions": [{"snapshot": "https://images.wsdot.wa.gov/sw/005vc08132.jpg", "video": null, "label": "", "facing": "Both directions", "refresh_sec": 119}], "roadway": "I-5", "county": ""}}, {"type": "Feature", "geometry": {"type": "Point", "coordinates": [-122.97627, 46.720324]}, "properties": {"name": "I-5 at MP 82.2: NB Exit 82", "kind": "live", "directions": [{"snapshot": "https://images.wsdot.wa.gov/sw/005vc08227.jpg", "video": null, "label": "", "facing": "Both directions", "refresh_sec": 119}], "roadway": "I-5", "county": ""}}, {"type": "Feature", "geometry": {"type": "Point", "coordinates": [-122.975736, 46.712039]}, "properties": {"name": "I-5 at MP 81.6: Mellen St", "kind": "live", "directions": [{"snapshot": "https://images.wsdot.wa.gov/sw/005vc08168.jpg", "video": null, "label": "", "facing": "Both directions", "refresh_sec": 119}], "roadway": "I-5", "county": ""}}, {"type": "Feature", "geometry": {"type": "Point", "coordinates": [-122.976799, 46.727499]}, "properties": {"name": "I-5 at MP 82.7: Harrison Ave", "kind": "live", "directions": [{"snapshot": "https://images.wsdot.wa.gov/sw/005vc08274.jpg", "video": null, "label": "#1", "facing": "Both directions", "refresh_sec": 119}, {"snapshot": "https://images.wsdot.wa.gov/sw/005vc08275.jpg", "video": null, "label": "#2", "facing": "Both directions", "refresh_sec": 119}], "roadway": "I-5", "county": ""}}, {"type": "Feature", "geometry": {"type": "Point", "coordinates": [-122.978396, 46.742788]}, "properties": {"name": "I-5 at MP 83.8: Blakeslee Junction", "kind": "live", "directions": [{"snapshot": "https://images.wsdot.wa.gov/sw/005vc08381.jpg", "video": null, "label": "", "facing": "Both directions", "refresh_sec": 119}], "roadway": "I-5", "county": ""}}, {"type": "Feature", "geometry": {"type": "Point", "coordinates": [-122.993245, 46.765422]}, "properties": {"name": "I-5 at MP 85.5: Lewis County Line", "kind": "live", "directions": [{"snapshot": "https://images.wsdot.wa.gov/sw/005vc08551.jpg", "video": null, "label": "", "facing": "Both directions", "refresh_sec": 119}], "roadway": "I-5", "county": ""}}, {"type": "Feature", "geometry": {"type": "Point", "coordinates": [-123.008039, 46.790338]}, "properties": {"name": "I-5 at MP 87.4: Thurston/Lewis County Line", "kind": "live", "directions": [{"snapshot": "https://images.wsdot.wa.gov/orflow/005vc08744.jpg", "video": null, "label": "", "facing": "Both directions", "refresh_sec": 69}], "roadway": "I-5", "county": ""}}, {"type": "Feature", "geometry": {"type": "Point", "coordinates": [-123.007164, 46.802261]}, "properties": {"name": "I-5 at MP 88.3: US 12 Interchange Grand Mound", "kind": "live", "directions": [{"snapshot": "https://images.wsdot.wa.gov/orflow/005vc08832.jpg", "video": null, "label": "", "facing": "Both directions", "refresh_sec": 69}], "roadway": "I-5", "county": ""}}, {"type": "Feature", "geometry": {"type": "Point", "coordinates": [-122.983371, 46.841996]}, "properties": {"name": "I-5 at MP 91.2: Scatter Creek", "kind": "live", "directions": [{"snapshot": "https://images.wsdot.wa.gov/orflow/005vc09127.jpg", "video": null, "label": "", "facing": "Both directions", "refresh_sec": 92}], "roadway": "I-5", "county": ""}}, {"type": "Feature", "geometry": {"type": "Point", "coordinates": [-122.9695, 46.869358]}, "properties": {"name": "I-5 at MP 93.2: Maytown South", "kind": "live", "directions": [{"snapshot": "https://images.wsdot.wa.gov/orflow/005vc09329.jpg", "video": null, "label": "", "facing": "Both directions", "stale_since": "2026-06-09T21:51:12Z"}], "roadway": "I-5", "county": ""}}, {"type": "Feature", "geometry": {"type": "Point", "coordinates": [-122.960505, 46.897182]}, "properties": {"name": "I-5 at MP 95.2: Maytown", "kind": "live", "directions": [{"snapshot": "https://images.wsdot.wa.gov/orflow/005vc09526.jpg", "video": null, "label": "", "facing": "Both directions", "refresh_sec": 66}], "roadway": "I-5", "county": ""}}, {"type": "Feature", "geometry": {"type": "Point", "coordinates": [-122.954275, 46.908647]}, "properties": {"name": "I-5 at MP 96: Maytown North", "kind": "live", "directions": [{"snapshot": "https://images.wsdot.wa.gov/orflow/005vc09611.jpg", "video": null, "label": "", "facing": "Both directions", "refresh_sec": 56}], "roadway": "I-5", "county": ""}}, {"type": "Feature", "geometry": {"type": "Point", "coordinates": [-122.90587, 47.017396]}, "properties": {"name": "I-5 at MP 104: Custer Way", "kind": "live", "directions": [{"snapshot": "https://images.wsdot.wa.gov/orflow/005vc10404.jpg", "video": null, "label": "", "facing": "Both directions", "refresh_sec": 64}], "roadway": "I-5", "county": ""}}, {"type": "Feature", "geometry": {"type": "Point", "coordinates": [-122.898496, 47.025349]}, "properties": {"name": "I-5 at MP 104.8: Capitol Blvd", "kind": "live", "directions": [{"snapshot": "https://images.wsdot.wa.gov/orflow/005vc10480.jpg", "video": null, "label": "", "facing": "Both directions", "refresh_sec": 68}], "roadway": "I-5", "county": ""}}, {"type": "Feature", "geometry": {"type": "Point", "coordinates": [-122.893552, 47.030205]}, "properties": {"name": "I-5 at MP 105.2: Henderson Blvd", "kind": "live", "directions": [{"snapshot": "https://images.wsdot.wa.gov/orflow/005vc10520.jpg", "video": null, "label": "", "facing": "Both directions", "refresh_sec": 66}], "roadway": "I-5", "county": ""}}, {"type": "Feature", "geometry": {"type": "Point", "coordinates": [-122.88707, 47.035205]}, "properties": {"name": "I-5 at MP 105.6: Eastside St", "kind": "live", "directions": [{"snapshot": "https://images.wsdot.wa.gov/orflow/005vc10567.jpg", "video": null, "label": "", "facing": "Both directions", "refresh_sec": 57}], "roadway": "I-5", "county": ""}}, {"type": "Feature", "geometry": {"type": "Point", "coordinates": [-122.857057, 47.040283]}, "properties": {"name": "I-5 at MP 107.2: Pacific Ave (Olympia)", "kind": "live", "directions": [{"snapshot": "https://images.wsdot.wa.gov/orflow/005vc10720.jpg", "video": null, "label": "", "facing": "Both directions", "refresh_sec": 68}], "roadway": "I-5", "county": ""}}, {"type": "Feature", "geometry": {"type": "Point", "coordinates": [-122.834563, 47.045719]}, "properties": {"name": "I-5 at MP 108.3: Sleater-Kinney", "kind": "live", "directions": [{"snapshot": "https://images.wsdot.wa.gov/orflow/005vc10835.jpg", "video": null, "label": "", "facing": "Both directions", "refresh_sec": 63}], "roadway": "I-5", "county": ""}}, {"type": "Feature", "geometry": {"type": "Point", "coordinates": [-122.844303, 47.044195]}, "properties": {"name": "I-5 @ MP 107.8: Lilly Rd", "kind": "live", "directions": [{"snapshot": "https://images.wsdot.wa.gov/orflow/005vc10787.jpg", "video": null, "label": "", "facing": "Both directions", "refresh_sec": 66}], "roadway": "I-5", "county": ""}}, {"type": "Feature", "geometry": {"type": "Point", "coordinates": [-122.819753, 47.048]}, "properties": {"name": "I-5 at MP 109: Martin Way", "kind": "live", "directions": [{"snapshot": "https://images.wsdot.wa.gov/orflow/005vc10907.jpg", "video": null, "label": "", "facing": "Both directions", "refresh_sec": 67}], "roadway": "I-5", "county": ""}}, {"type": "Feature", "geometry": {"type": "Point", "coordinates": [-122.806732, 47.057008]}, "properties": {"name": "I-5 at MP 109.9: Carpenter Rd South", "kind": "live", "directions": [{"snapshot": "https://images.wsdot.wa.gov/orflow/005vc10993.jpg", "video": null, "label": "", "facing": "Southbound", "refresh_sec": 66}], "roadway": "I-5", "county": ""}}, {"type": "Feature", "geometry": {"type": "Point", "coordinates": [-122.770282, 47.063323]}, "properties": {"name": "I-5 at MP 111.2: Gateway Blvd", "kind": "live", "directions": [{"snapshot": "https://images.wsdot.wa.gov/orflow/005vc11127.jpg", "video": null, "label": "", "facing": "Both directions", "refresh_sec": 63}], "roadway": "I-5", "county": ""}}, {"type": "Feature", "geometry": {"type": "Point", "coordinates": [-122.764831, 47.063261]},